{
  "results": [
    {
      "name": "G&J Flavours of Home, Bath Street",
      "rating": 3,
      "createdAt": "16/09/2024",
      "address1": "Morrisons Daily",
      "address2": "48-60  Bath Street",
      "address3": "St. Helier",
      "postCode": "JE2 4SU",
      "latitude": 49.185462,
      "longitude": -2.102357
    },
    {
      "name": "The Mulcaster & 1823 Grill",
      "rating": 4,
      "createdAt": "09/12/2024",
      "address1": "The Mulcaster & 1823 Grill",
      "address2": "14  Mulcaster Street",
      "address3": "St. Helier",
      "postCode": "JE2 3NJ",
      "latitude": 49.183115,
      "longitude": -2.106983
    },
    {
      "name": "The Office Bar (Events)",
      "rating": 2,
      "createdAt": "23/08/2024",
      "address1": null,
      "address2": null,
      "address3": null,
      "postCode": null,
      "latitude": null,
      "longitude": null
    },
    {
      "name": "Green Dragon / Dish",
      "rating": 3,
      "createdAt": "22/10/2024",
      "address1": "Green Dragon Chinese Restaurant",
      "address2": "Gloucester Street",
      "address3": "St. Helier",
      "postCode": "JE2 3QR",
      "latitude": 49.187144,
      "longitude": -2.111804
    },
    {
      "name": "BE Caterers",
      "rating": 5,
      "createdAt": "25/03/2025",
      "address1": null,
      "address2": null,
      "address3": null,
      "postCode": null,
      "latitude": null,
      "longitude": null
    },
    {
      "name": "Grouville School (Flourish)",
      "rating": 5,
      "createdAt": "03/10/2024",
      "address1": "Grouville Primary School",
      "address2": "La Rue de la Haye du Puits",
      "address3": "Grouville",
      "postCode": "JE3 9DL",
      "latitude": 49.185554,
      "longitude": -2.04231
    },
    {
      "name": "Wicked Chicken",
      "rating": 5,
      "createdAt": "10/06/2024",
      "address1": "Wicked Chicken",
      "address2": "4  La Rue du Crocquet",
      "address3": "St. Brelade",
      "postCode": "JE3 8AA",
      "latitude": 49.189334,
      "longitude": -2.169974
    },
    {
      "name": "Kracking Food",
      "rating": 5,
      "createdAt": "08/04/2024",
      "address1": null,
      "address2": null,
      "address3": null,
      "postCode": null,
      "latitude": null,
      "longitude": null
    },
    {
      "name": "Jersey Family Food Kitchen",
      "rating": 3,
      "createdAt": "27/01/2025",
      "address1": null,
      "address2": null,
      "address3": null,
      "postCode": null,
      "latitude": null,
      "longitude": null
    },
    {
      "name": "Sugar & Spice by Rustic Jersey",
      "rating": 5,
      "createdAt": "10/06/2024",
      "address1": null,
      "address2": null,
      "address3": null,
      "postCode": null,
      "latitude": null,
      "longitude": null
    },
    {
      "name": "Flavours of Madeira",
      "rating": 4,
      "createdAt": "11/04/2024",
      "address1": "6 Cheapside",
      "address2": null,
      "address3": "St Helier",
      "postCode": null,
      "latitude": 49.18876,
      "longitude": -2.11235
    },
    {
      "name": "Mange Tout, York Street",
      "rating": 5,
      "createdAt": "31/05/2024",
      "address1": "12  York Street",
      "address2": null,
      "address3": "St. Helier",
      "postCode": "JE2 3RQ",
      "latitude": 49.18583,
      "longitude": -2.1095
    },
    {
      "name": "The Slip Bistro and Grill",
      "rating": 4,
      "createdAt": "16/07/2024",
      "address1": "La Haule Slip",
      "address2": "La Neuve Route",
      "address3": "St. Brelade",
      "postCode": "JE3 8BS",
      "latitude": 49.189827,
      "longitude": -2.168792
    },
    {
      "name": "El Gato Gordo",
      "rating": 5,
      "createdAt": "01/08/2024",
      "address1": "Unit 11a",
      "address2": "Liberty Wharf",
      "address3": "St. Helier",
      "postCode": "JE2 3NY",
      "latitude": 49.182951,
      "longitude": -2.107887
    },
    {
      "name": "Little Bubbly Truck",
      "rating": 5,
      "createdAt": "30/04/2024",
      "address1": null,
      "address2": null,
      "address3": null,
      "postCode": null,
      "latitude": null,
      "longitude": null
    },
    {
      "name": "Boss Hoggs",
      "rating": 5,
      "createdAt": "30/04/2024",
      "address1": null,
      "address2": null,
      "address3": null,
      "postCode": null,
      "latitude": null,
      "longitude": null
    },
    {
      "name": "Dough Jersey",
      "rating": 4,
      "createdAt": "07/08/2024",
      "address1": "90 Central Market",
      "address2": "Halkett Place",
      "address3": "St. Helier",
      "postCode": "JE2 4WL",
      "latitude": 49.185665,
      "longitude": -2.110228
    },
    {
      "name": "Burger Project",
      "rating": 4,
      "createdAt": "25/04/2024",
      "address1": null,
      "address2": null,
      "address3": null,
      "postCode": null,
      "latitude": null,
      "longitude": null
    },
    {
      "name": "Le Geyt Day Centre",
      "rating": 4,
      "createdAt": "15/04/2024",
      "address1": "Le Geyt Centre",
      "address2": "La Grande Route de St. Martin",
      "address3": "St. Saviour",
      "postCode": "JE2 7GS",
      "latitude": 49.199905,
      "longitude": -2.078274
    },
    {
      "name": "1TREEFOODS",
      "rating": 3,
      "createdAt": "21/05/2025",
      "address1": null,
      "address2": null,
      "address3": null,
      "postCode": null,
      "latitude": null,
      "longitude": null
    },
    {
      "name": "Pretty Punchy",
      "rating": 3,
      "createdAt": "25/09/2024",
      "address1": null,
      "address2": null,
      "address3": null,
      "postCode": null,
      "latitude": null,
      "longitude": null
    },
    {
      "name": "Morrisons Daily-La Moye",
      "rating": 3,
      "createdAt": "20/11/2025",
      "address1": "Links Hault",
      "address2": null,
      "address3": "St. Brelade",
      "postCode": "JE3 8GQ",
      "latitude": 49.193024,
      "longitude": -2.199614
    },
    {
      "name": "Kaffe Kitchen",
      "rating": 5,
      "createdAt": "05/07/2024",
      "address1": "15  La Rue Sinnatt",
      "address2": "Rue Des Pres Trading Estate",
      "address3": "St. Saviour",
      "postCode": "JE2 7QT",
      "latitude": 49.194897,
      "longitude": -2.090318
    },
    {
      "name": "Nicoleta's Home Cakes",
      "rating": 5,
      "createdAt": "26/03/2024",
      "address1": "35  Burrard Street",
      "address2": null,
      "address3": "St. Helier",
      "postCode": "JE2 4WS",
      "latitude": 49.18613,
      "longitude": -2.10596
    },
    {
      "name": "Spice View",
      "rating": 4,
      "createdAt": "14/02/2025",
      "address1": "Spice View",
      "address2": "La Route de la Côte",
      "address3": "St. Martin",
      "postCode": "JE3 6DR",
      "latitude": 49.206907,
      "longitude": -2.022287
    },
    {
      "name": "Rozel Tea Room & Love Cake, Samares Manor",
      "rating": 4,
      "createdAt": "02/04/2024",
      "address1": "Samares Manor",
      "address2": "La Grande Route de St. Clément",
      "address3": "St. Clement",
      "postCode": "JE2 6QW",
      "latitude": 49.167526,
      "longitude": -2.080117
    },
    {
      "name": "Sweet Humble Pies",
      "rating": 4,
      "createdAt": "07/11/2025",
      "address1": null,
      "address2": null,
      "address3": null,
      "postCode": null,
      "latitude": null,
      "longitude": null
    },
    {
      "name": "Moulin de Lecq",
      "rating": 4,
      "createdAt": "22/05/2024",
      "address1": "Le Moulin de Lecq",
      "address2": "Le Mont de la Greve de Lecq",
      "address3": "St. Ouen",
      "postCode": "JE3 2DT",
      "latitude": 49.23351,
      "longitude": -2.202041
    },
    {
      "name": "Pablo's Jersey Ltd",
      "rating": 5,
      "createdAt": "28/05/2025",
      "address1": "Unit 7 Horizon West",
      "address2": "The Waterfront",
      "address3": "St. Helier",
      "postCode": "JE2 3WF",
      "latitude": 49.185665,
      "longitude": -2.110228
    },
    {
      "name": "Andy's Artisan Bakery",
      "rating": 5,
      "createdAt": "08/04/2024",
      "address1": null,
      "address2": null,
      "address3": null,
      "postCode": null,
      "latitude": null,
      "longitude": null
    },
    {
      "name": "Downdog",
      "rating": 2,
      "createdAt": "12/05/2025",
      "address1": "Cyril Le Marquand Court",
      "address2": null,
      "address3": "St. Helier",
      "postCode": "JE2 4SU",
      "latitude": 49.185665,
      "longitude": -2.110228
    },
    {
      "name": "Hoi Hoi Jersey (Mobile Unit)",
      "rating": 5,
      "createdAt": "04/10/2024",
      "address1": null,
      "address2": null,
      "address3": null,
      "postCode": null,
      "latitude": null,
      "longitude": null
    },
    {
      "name": "Bella Italia / Bird Box",
      "rating": 4,
      "createdAt": "15/04/2025",
      "address1": "Bella Italia",
      "address2": "10  York Street",
      "address3": "St. Helier",
      "postCode": "JE2 3RQ",
      "latitude": 49.185587,
      "longitude": -2.109397
    },
    {
      "name": "Occasions",
      "rating": 5,
      "createdAt": "18/07/2024",
      "address1": "16 Les Quennevais Parade",
      "address2": "La Route des Quennevais",
      "address3": "St. Brelade",
      "postCode": "JE3 8FX",
      "latitude": 49.18316,
      "longitude": -2.17599
    },
    {
      "name": "Alma Sana Noursh",
      "rating": 5,
      "createdAt": "15/05/2025",
      "address1": null,
      "address2": null,
      "address3": null,
      "postCode": null,
      "latitude": null,
      "longitude": null
    },
    {
      "name": "Gustoso Pizzeria",
      "rating": 3,
      "createdAt": "22/09/2025",
      "address1": "The Shop",
      "address2": "9  Kensington Place",
      "address3": "St. Helier",
      "postCode": "JE2 3PA",
      "latitude": 49.18844,
      "longitude": -2.11251
    },
    {
      "name": "La Hougue Bie",
      "rating": 5,
      "createdAt": "29/04/2025",
      "address1": "La Hougue Bie Museum",
      "address2": "La Route de la Hougue Bie",
      "address3": "Grouville",
      "postCode": "JE3 9HQ",
      "latitude": 49.202214,
      "longitude": -2.053117
    },
    {
      "name": "The Bagot Inn",
      "rating": 5,
      "createdAt": "24/02/2025",
      "address1": "Georgetown Road",
      "address2": null,
      "address3": "St. Saviour",
      "postCode": "JE2 7PH",
      "latitude": 49.178826,
      "longitude": -2.093266
    },
    {
      "name": "The Adelphi Lounge",
      "rating": 5,
      "createdAt": "18/05/2021",
      "address1": "The Parade",
      "address2": null,
      "address3": "St. Helier",
      "postCode": "JE2 3QP",
      "latitude": 49.187094,
      "longitude": -2.110629
    },
    {
      "name": "The Beach Hut (Pinel Slip)",
      "rating": 3,
      "createdAt": "06/06/2024",
      "address1": "Pinel Slipway",
      "address2": "Pinel Slipway",
      "address3": "St Helier",
      "postCode": "JE2 4ZT",
      "latitude": -0.895779,
      "longitude": 119.867997
    },
    {
      "name": "Maison St Brelade Care Home",
      "rating": 5,
      "createdAt": "07/02/2025",
      "address1": null,
      "address2": "Maison St. Brelade",
      "address3": "St. Brelade",
      "postCode": "JE3 8FB",
      "latitude": null,
      "longitude": null
    },
    {
      "name": "Acorn Cafe",
      "rating": 4,
      "createdAt": "21/03/2024",
      "address1": "Acorn Enterprises Ltd",
      "address2": "La Rue D'Asplet",
      "address3": "Trinity",
      "postCode": "JE3 5JF",
      "latitude": 49.233709,
      "longitude": -2.094006
    },
    {
      "name": "Mange Tout, International Finance Centre 5",
      "rating": 3,
      "createdAt": "01/08/2023",
      "address1": "IFC 5",
      "address2": "IFC Jersey",
      "address3": "St. Helier",
      "postCode": "JE2 3BY",
      "latitude": 49.185665,
      "longitude": -2.110228
    },
    {
      "name": "Niche Events",
      "rating": 5,
      "createdAt": "23/05/2024",
      "address1": null,
      "address2": null,
      "address3": null,
      "postCode": null,
      "latitude": null,
      "longitude": null
    },
    {
      "name": "Trafalgar Inn",
      "rating": 3,
      "createdAt": "19/11/2018",
      "address1": "La Rue du Crucquet",
      "address2": "St. Aubin",
      "address3": "JERSEY",
      "postCode": "JE3 8BR",
      "latitude": 49.301876,
      "longitude": 1.012524
    },
    {
      "name": "Earl Granville",
      "rating": 3,
      "createdAt": "28/03/2019",
      "address1": "Earl Granville",
      "address2": "Charles Street",
      "address3": "St. Helier",
      "postCode": "JE2 4SF",
      "latitude": 49.185469,
      "longitude": -2.10137
    },
    {
      "name": "The Bear",
      "rating": 3,
      "createdAt": "03/12/2025",
      "address1": "The Bear Public House & Dining Room",
      "address2": "36  King Street",
      "address3": "St. Helier",
      "postCode": "JE2 4WF",
      "latitude": 49.18445,
      "longitude": -2.10681
    },
    {
      "name": "Gloster Vaults",
      "rating": 5,
      "createdAt": "25/07/2022",
      "address1": "35 Gloucester Street",
      "address2": null,
      "address3": "St. Helier",
      "postCode": "JE2 3QR",
      "latitude": 49.186736,
      "longitude": -2.112832
    },
    {
      "name": "The New Park Hotel",
      "rating": 4,
      "createdAt": "19/02/2019",
      "address1": "New Park Hotel",
      "address2": "4",
      "address3": "St. Helier",
      "postCode": "JE2 3PD",
      "latitude": 49.185665,
      "longitude": -2.110228
    },
    {
      "name": "The Spice House",
      "rating": 5,
      "createdAt": "23/07/2024",
      "address1": "59-62 Central Market",
      "address2": "Halkett Place",
      "address3": "Jersey",
      "postCode": "JE2 4WL",
      "latitude": 49.21849,
      "longitude": -2.14198
    },
    {
      "name": "Pizzeria Romana",
      "rating": 4,
      "createdAt": "12/07/2024",
      "address1": "17 Charing Cross",
      "address2": "St. Helier",
      "address3": null,
      "postCode": "JE2 3RP",
      "latitude": 49.185238,
      "longitude": -2.109729
    },
    {
      "name": "Quick Stop",
      "rating": 5,
      "createdAt": "21/05/2024",
      "address1": "7 Charing Cross",
      "address2": "St. Helier",
      "address3": null,
      "postCode": "JE2 3RP",
      "latitude": 49.18514,
      "longitude": -2.10925
    },
    {
      "name": "Cheapside Butchers",
      "rating": 3,
      "createdAt": "19/07/2024",
      "address1": "19 Cheapside",
      "address2": "St. Helier",
      "address3": null,
      "postCode": "JE2 3PG",
      "latitude": 49.18924,
      "longitude": -2.11295
    },
    {
      "name": "St. John's Inn",
      "rating": 3,
      "createdAt": "07/03/2024",
      "address1": "La Rue De La Mare Ballam",
      "address2": "St. John",
      "address3": null,
      "postCode": "JE3 4EJ",
      "latitude": 49.240274,
      "longitude": -2.137734
    },
    {
      "name": "St. John's Parish Hall",
      "rating": 5,
      "createdAt": "24/10/2023",
      "address1": "La Rue De La Mare Ballam",
      "address2": "St. John",
      "address3": null,
      "postCode": "JE3 4EJ",
      "latitude": 49.240274,
      "longitude": -2.137734
    },
    {
      "name": "Cafe Ouen",
      "rating": 4,
      "createdAt": "12/04/2024",
      "address1": "Portinfer Farm",
      "address2": "La Rue de la Porte",
      "address3": "Jersey",
      "postCode": "JE3 2BN",
      "latitude": 39.119433,
      "longitude": -90.327488
    },
    {
      "name": "Unifare Stores",
      "rating": 3,
      "createdAt": "10/04/2024",
      "address1": "Le Geyt Road",
      "address2": "St. Saviour",
      "address3": null,
      "postCode": "JE2 7NS",
      "latitude": 49.192846,
      "longitude": -2.098538
    },
    {
      "name": "Waitrose (Jersey) Ltd - St Helier",
      "rating": 5,
      "createdAt": "12/07/2022",
      "address1": "La Vallée des Vaux",
      "address2": "St. Helier",
      "address3": null,
      "postCode": "JE2 3GA",
      "latitude": 49.185665,
      "longitude": -2.110228
    },
    {
      "name": "The Good Stone",
      "rating": 4,
      "createdAt": "31/05/2022",
      "address1": null,
      "address2": null,
      "address3": null,
      "postCode": null,
      "latitude": null,
      "longitude": null
    },
    {
      "name": "Centre Point Trust Playcare",
      "rating": 3,
      "createdAt": "09/12/2023",
      "address1": "Le Hurel",
      "address2": "La Pouquelaye",
      "address3": "Jersey",
      "postCode": "JE2 3FU",
      "latitude": 39.119433,
      "longitude": -90.327488
    },
    {
      "name": "Jersey Aero Club",
      "rating": 4,
      "createdAt": "28/09/2023",
      "address1": "L'Avenue de la Reine Elizabeth II",
      "address2": "St. Peter",
      "address3": null,
      "postCode": "JE3 7BP",
      "latitude": 49.206594,
      "longitude": -2.187314
    },
    {
      "name": "Jersey Hospice Care",
      "rating": 4,
      "createdAt": "31/10/2024",
      "address1": "Clarkson House",
      "address2": "Le Mont Cochon",
      "address3": "Jersey",
      "postCode": "JE2 3JB",
      "latitude": 50.442049,
      "longitude": 5.597497
    },
    {
      "name": "MFA Bowling",
      "rating": 4,
      "createdAt": "01/07/2025",
      "address1": "Jersey Bowl",
      "address2": "L'Avenue de la Reine Elizabeth II",
      "address3": "Jersey",
      "postCode": "JE3 7BP",
      "latitude": 40.665327,
      "longitude": -74.214768
    },
    {
      "name": "The Old Bake House Cafe",
      "rating": 4,
      "createdAt": "29/07/2022",
      "address1": "Le Mont Cochon",
      "address2": "St. Helier",
      "address3": null,
      "postCode": "JE2 3JA",
      "latitude": 49.185665,
      "longitude": -2.110228
    },
    {
      "name": "The Tenby",
      "rating": 4,
      "createdAt": "03/04/2024",
      "address1": "Le Boulevard",
      "address2": "St. Brelade",
      "address3": null,
      "postCode": "JE3 8AB",
      "latitude": 49.186263,
      "longitude": -2.169611
    },
    {
      "name": "St Peter's Indoor Market",
      "rating": 4,
      "createdAt": "19/07/2025",
      "address1": "Western Minature Rifle Club",
      "address2": "Rue des Fosses",
      "address3": "Jersey",
      "postCode": "JE3 7AH",
      "latitude": 49.211777,
      "longitude": -2.182927
    },
    {
      "name": "St Peter's Football Club",
      "rating": 4,
      "createdAt": "19/08/2022",
      "address1": "La Rue des Vignes",
      "address2": "St. Peter",
      "address3": null,
      "postCode": "JE3 7BE",
      "latitude": 49.21283,
      "longitude": -2.18372
    },
    {
      "name": "World Duty Free",
      "rating": 5,
      "createdAt": "22/07/2022",
      "address1": "States of Jersey Airport",
      "address2": "L'Avenue de la Reine Elizabeth II",
      "address3": "Jersey",
      "postCode": "JE3 7BP",
      "latitude": 50.10486,
      "longitude": 8.762404
    },
    {
      "name": "Co-Op Locale - Val Plaisant",
      "rating": 5,
      "createdAt": "29/07/2024",
      "address1": "59 Val Plaisant",
      "address2": "St. Helier",
      "address3": null,
      "postCode": "JE2 4TB",
      "latitude": 49.19186,
      "longitude": -2.10227
    },
    {
      "name": "Co-Op Locale - Beaumont",
      "rating": 5,
      "createdAt": "25/05/2022",
      "address1": "La Route De Beaumont",
      "address2": "St. Peter",
      "address3": null,
      "postCode": "JE1 1AS",
      "latitude": 49.21283,
      "longitude": -2.18372
    },
    {
      "name": "Centre Point Two",
      "rating": 4,
      "createdAt": "15/04/2024",
      "address1": "St. Helier Day Nursery",
      "address2": "Green Street",
      "address3": "Jersey",
      "postCode": "JE2 4UH",
      "latitude": 39.119433,
      "longitude": -90.327488
    },
    {
      "name": "Co-Op Fresh Food Grande Marche",
      "rating": 4,
      "createdAt": "03/08/2025",
      "address1": "La Rue de l'Église",
      "address2": "St. Peter",
      "address3": null,
      "postCode": "JE3 7AG",
      "latitude": 49.213038,
      "longitude": -2.18341
    },
    {
      "name": "Bethesda Methodist Church",
      "rating": 5,
      "createdAt": "31/10/2023",
      "address1": "La Route du Moulin",
      "address2": "St. Peter",
      "address3": null,
      "postCode": "JE3 7FR",
      "latitude": 49.211369,
      "longitude": -2.211038
    },
    {
      "name": "La Petite Ecole 2",
      "rating": 5,
      "createdAt": "19/12/2022",
      "address1": "47 St. Marks Road",
      "address2": "St. Helier",
      "address3": null,
      "postCode": "JE2 4LY",
      "latitude": 49.19043,
      "longitude": -2.10049
    },
    {
      "name": "Driftwood Cafe",
      "rating": 4,
      "createdAt": "01/08/2023",
      "address1": "Archirondel",
      "address2": "La Route de la Côte",
      "address3": "Jersey",
      "postCode": "JE3 6DY",
      "latitude": 49.212394,
      "longitude": -2.020904
    },
    {
      "name": "Noya Shapla",
      "rating": 4,
      "createdAt": "05/06/2025",
      "address1": "Natwest Bank",
      "address2": "Charing Cross",
      "address3": "Jersey",
      "postCode": "JE3 8AA",
      "latitude": 49.185157,
      "longitude": -2.109372
    },
    {
      "name": "Brig-y-Don House",
      "rating": 3,
      "createdAt": "05/07/2024",
      "address1": "Brig-y-Don",
      "address2": "La Grande Route de la Côte",
      "address3": "Jersey",
      "postCode": "JE2 6FT",
      "latitude": 48.718906,
      "longitude": 10.778779
    },
    {
      "name": "The Gardener's Tearoom, Ransoms",
      "rating": 4,
      "createdAt": "03/02/2025",
      "address1": "The Gardener's Tearoom",
      "address2": "Ransoms Garden Centre",
      "address3": "St. Martin",
      "postCode": "JE3 6UG",
      "latitude": 49.217728,
      "longitude": -2.051631
    },
    {
      "name": "The Lighthouse Beach Cafe",
      "rating": 5,
      "createdAt": "01/06/2022",
      "address1": "La Mare Slipway",
      "address2": "La Grande Route de la Côte",
      "address3": "Jersey",
      "postCode": "JE2 6SB",
      "latitude": 39.119433,
      "longitude": -90.327488
    },
    {
      "name": "Rhona's at the Beach",
      "rating": 5,
      "createdAt": "03/02/2025",
      "address1": "La Montee des Greves Slipway",
      "address2": "La Route de la Cote",
      "address3": "St. Martin",
      "postCode": null,
      "latitude": 49.206907,
      "longitude": -2.022287
    },
    {
      "name": "Barkers Newsagents",
      "rating": 3,
      "createdAt": "29/07/2024",
      "address1": "Barkers Newsagents",
      "address2": "12 Val Plaisant",
      "address3": "Jersey",
      "postCode": "JE2 4TA",
      "latitude": 49.191634,
      "longitude": -2.102534
    },
    {
      "name": "Superdrug",
      "rating": 5,
      "createdAt": "21/07/2023",
      "address1": "Rutland House",
      "address2": "76-78 King Street",
      "address3": "St. Helier",
      "postCode": "JE2 4WE",
      "latitude": 49.184451,
      "longitude": -2.106853
    },
    {
      "name": "Bolero Bistro",
      "rating": 4,
      "createdAt": "11/01/2024",
      "address1": "22 Rouge Bouillon",
      "address2": "St. Helier",
      "address3": null,
      "postCode": "JE2 3ZA",
      "latitude": 49.190204,
      "longitude": -2.109891
    },
    {
      "name": "L'Hermitage (inc. Beaumont Villa)",
      "rating": 5,
      "createdAt": "09/10/2024",
      "address1": "Care Centre",
      "address2": "La Route De Beaumont",
      "address3": "Jersey",
      "postCode": "JE3 7HH",
      "latitude": 39.119433,
      "longitude": -90.327488
    },
    {
      "name": "Stuart Court Residential Home",
      "rating": 5,
      "createdAt": "12/04/2024",
      "address1": "La Rue De Haut",
      "address2": "St. Lawrence",
      "address3": null,
      "postCode": "JE3 1JQ",
      "latitude": 49.200793,
      "longitude": -2.142924
    },
    {
      "name": "Woodlands Farm Butchers Ltd",
      "rating": 4,
      "createdAt": "15/01/2024",
      "address1": "Woodlands Farm (Dairy)",
      "address2": "La Rue de Maupertuis",
      "address3": "Jersey",
      "postCode": "JE2 3HG",
      "latitude": 49.168064,
      "longitude": -2.081943
    },
    {
      "name": "St Clement Sports Club (Football Pi)",
      "rating": 4,
      "createdAt": "27/03/2024",
      "address1": "St Clement Sports Club",
      "address2": "La Grande Route de St. Clément",
      "address3": null,
      "postCode": null,
      "latitude": 48.492226,
      "longitude": 9.211566
    },
    {
      "name": "Aquadome Cascades",
      "rating": 5,
      "createdAt": "15/07/2025",
      "address1": "Merton Leisure Club & Aquadome",
      "address2": "Belvedere Hill",
      "address3": "Jersey",
      "postCode": "JE2 7RP",
      "latitude": 49.21849,
      "longitude": -2.14198
    },
    {
      "name": "Cineworld",
      "rating": 5,
      "createdAt": "01/07/2022",
      "address1": "Cineworld",
      "address2": "La Rue De L'Etau",
      "address3": "St. Helier",
      "postCode": "JE2 3WF",
      "latitude": 49.181852,
      "longitude": -2.113789
    },
    {
      "name": "Crabbe Clay Pigeon Club",
      "rating": 5,
      "createdAt": "24/02/2023",
      "address1": "La Rue de Crabbé",
      "address2": "St. Mary",
      "address3": null,
      "postCode": "JE3 3AD",
      "latitude": 49.236404,
      "longitude": -2.171625
    },
    {
      "name": "Cargo Coffee at Santander Work Cafe",
      "rating": 4,
      "createdAt": "21/05/2024",
      "address1": "13-15 Charing Cross",
      "address2": "St. Helier",
      "address3": null,
      "postCode": "JE2 3RP",
      "latitude": 49.185157,
      "longitude": -2.109372
    },
    {
      "name": "Entwhistle's Takeaway",
      "rating": 5,
      "createdAt": "02/04/2024",
      "address1": "Entwhistles Takeaway",
      "address2": "Gorey Village Main Road",
      "address3": "Jersey",
      "postCode": "JE3 9EP",
      "latitude": 39.119433,
      "longitude": -90.327488
    },
    {
      "name": "Shelter Trust",
      "rating": 4,
      "createdAt": "04/10/2023",
      "address1": "Aztec House",
      "address2": "35-37 Kensington Place",
      "address3": "Jersey",
      "postCode": "JE2 3PA",
      "latitude": 43.865135,
      "longitude": -85.37849
    },
    {
      "name": "Co-Op Locale - Pontac",
      "rating": 5,
      "createdAt": "05/09/2022",
      "address1": "La Grande Route de la Côte",
      "address2": "St. Clement",
      "address3": null,
      "postCode": "JE2 6SE",
      "latitude": 49.173637,
      "longitude": -2.056212
    },
    {
      "name": "Finchy's",
      "rating": 5,
      "createdAt": "29/04/2022",
      "address1": null,
      "address2": null,
      "address3": null,
      "postCode": null,
      "latitude": null,
      "longitude": null
    },
    {
      "name": "Banjo",
      "rating": 5,
      "createdAt": "01/05/2024",
      "address1": "8 Beresford Street",
      "address2": "St. Helier",
      "address3": null,
      "postCode": "JE1 5JP",
      "latitude": 49.185278,
      "longitude": -2.103844
    },
    {
      "name": "Just William",
      "rating": 5,
      "createdAt": "13/10/2022",
      "address1": "93 Central Market",
      "address2": "Halkett Place",
      "address3": "Jersey",
      "postCode": "JE2 4WL",
      "latitude": 49.21849,
      "longitude": -2.14198
    },
    {
      "name": "The Jersey Tea Company Ltd",
      "rating": 5,
      "createdAt": "29/02/2024",
      "address1": null,
      "address2": null,
      "address3": null,
      "postCode": null,
      "latitude": null,
      "longitude": null
    },
    {
      "name": "Seawold Guest House",
      "rating": 4,
      "createdAt": "27/09/2022",
      "address1": "La Route de la Haule",
      "address2": "St. Peter",
      "address3": null,
      "postCode": "JE3 7BA",
      "latitude": 49.21283,
      "longitude": -2.18372
    },
    {
      "name": "Stanley's Cafe & Holme Grown",
      "rating": 5,
      "createdAt": "17/02/2025",
      "address1": "Fauvic Nurseries (Holme Grown)",
      "address2": "La Rue Au Long",
      "address3": "Jersey",
      "postCode": "JE3 9SH",
      "latitude": 39.119433,
      "longitude": -90.327488
    },
    {
      "name": "Busy Bees Nursery, Castle Quay",
      "rating": 5,
      "createdAt": "24/04/2024",
      "address1": "Unit 10 Millais House",
      "address2": "Castle Quay",
      "address3": "St. Helier",
      "postCode": "JE2 3ED",
      "latitude": 49.185665,
      "longitude": -2.110228
    },
    {
      "name": "Le Hocq Shack",
      "rating": 2,
      "createdAt": "18/08/2025",
      "address1": "Le Hocq Slipway",
      "address2": "La Grande Route de la Côte",
      "address3": "St. Clement",
      "postCode": null,
      "latitude": 49.167532,
      "longitude": -2.063859
    },
    {
      "name": "Janvrin School",
      "rating": 4,
      "createdAt": "12/11/2024",
      "address1": "Le Mont Cantel",
      "address2": "St. Helier",
      "address3": null,
      "postCode": "JE2 3ZQ",
      "latitude": 49.185665,
      "longitude": -2.110228
    },
    {
      "name": "Moita's Bistro",
      "rating": 5,
      "createdAt": "22/07/2024",
      "address1": "23 Havre des Pas",
      "address2": "St. Helier",
      "address3": null,
      "postCode": "JE2 4UQ",
      "latitude": 49.176992,
      "longitude": -2.102229
    },
    {
      "name": "Noodle Box",
      "rating": 3,
      "createdAt": "01/07/2025",
      "address1": "Unit",
      "address2": "Jersey Bowl",
      "address3": "St. Peter",
      "postCode": "JE3 7BP",
      "latitude": 49.21283,
      "longitude": -2.18372
    },
    {
      "name": "Temple Stores",
      "rating": 4,
      "createdAt": "15/10/2025",
      "address1": "12 Stopford Road",
      "address2": "St. Helier",
      "address3": null,
      "postCode": "JE2 4LZ",
      "latitude": 49.18926,
      "longitude": -2.10195
    },
    {
      "name": "Jersey Lillie Tandoori",
      "rating": 4,
      "createdAt": "24/07/2024",
      "address1": "Commercial Unit",
      "address2": "Westlyn",
      "address3": "St. Peter",
      "postCode": "JE3 7BR",
      "latitude": 38.792636,
      "longitude": -90.595688
    },
    {
      "name": "Mans Garden",
      "rating": 2,
      "createdAt": "29/01/2025",
      "address1": "Man's Garden",
      "address2": "Sandybrook Lane",
      "address3": "St. Lawrence",
      "postCode": "JE3 1LJ",
      "latitude": 49.202179,
      "longitude": -2.155597
    },
    {
      "name": "Thyme Out (HCS Catering)",
      "rating": 4,
      "createdAt": "25/02/2025",
      "address1": "General Hospital",
      "address2": "Gloucester Street",
      "address3": "Jersey",
      "postCode": "JE2 3QR",
      "latitude": 39.119433,
      "longitude": -90.327488
    },
    {
      "name": "Victor Hugo Wines",
      "rating": 5,
      "createdAt": "12/02/2025",
      "address1": "Longueville Business Centre",
      "address2": "Longueville Road",
      "address3": "St. Saviour",
      "postCode": "JE2 7SA",
      "latitude": 49.183385,
      "longitude": -2.078407
    },
    {
      "name": "Abilio's",
      "rating": 4,
      "createdAt": "04/03/2025",
      "address1": "37a Gloucester Street",
      "address2": "St. Helier",
      "address3": null,
      "postCode": "JE2 3QR",
      "latitude": 49.186736,
      "longitude": -2.112832
    },
    {
      "name": "Co-Op Locale - Grouville",
      "rating": 5,
      "createdAt": "05/09/2022",
      "address1": "Retail Unit",
      "address2": "La Rue à Don",
      "address3": "Jersey",
      "postCode": "JE3 9DX",
      "latitude": 49.188577,
      "longitude": -2.040517
    },
    {
      "name": "JJ Le Sueur",
      "rating": 5,
      "createdAt": "18/06/2021",
      "address1": "12 Britannia Place",
      "address2": "Bath Street",
      "address3": "Jersey",
      "postCode": "JE2 4SU",
      "latitude": 39.119433,
      "longitude": -90.327488
    },
    {
      "name": "Timmy's Hard Rocque Cafe",
      "rating": 4,
      "createdAt": "21/02/2025",
      "address1": "La Rocque Harbour",
      "address2": "La Grande Route des Sablons",
      "address3": "Grouville",
      "postCode": "JE3 9BB",
      "latitude": 49.176538,
      "longitude": -2.032492
    },
    {
      "name": "Mira Restaurant",
      "rating": 3,
      "createdAt": "03/05/2024",
      "address1": "9-11 Burrard Street",
      "address2": "St. Helier",
      "address3": null,
      "postCode": "JE2 4WS",
      "latitude": 49.186037,
      "longitude": -2.104783
    },
    {
      "name": "The Terrace Cafe",
      "rating": 5,
      "createdAt": "20/07/2022",
      "address1": "Ogier House",
      "address2": "44 Esplanade",
      "address3": "Jersey",
      "postCode": "JE4 9WB",
      "latitude": 49.184812,
      "longitude": -2.112029
    },
    {
      "name": "Fitness First Jersey",
      "rating": 5,
      "createdAt": "07/07/2025",
      "address1": "The Waterfront",
      "address2": "La Rue De L'Etau",
      "address3": "Jersey",
      "postCode": "JE2 3WF",
      "latitude": 39.119433,
      "longitude": -90.327488
    },
    {
      "name": "Belmont Fish Bar",
      "rating": 3,
      "createdAt": "25/01/2025",
      "address1": "16-18 Museum Street",
      "address2": "St. Helier",
      "address3": null,
      "postCode": "JE2 4SS",
      "latitude": 49.186352,
      "longitude": -2.101523
    },
    {
      "name": "Grand Jersey Hotel",
      "rating": 5,
      "createdAt": "04/03/2025",
      "address1": "Hotel & Spa",
      "address2": "Esplanade",
      "address3": "Jersey",
      "postCode": "JE2 3QA",
      "latitude": 49.210345,
      "longitude": -2.092171
    },
    {
      "name": "Marks & Spencer - Liberty Wharf",
      "rating": 5,
      "createdAt": "06/10/2023",
      "address1": "Liberty Wharf Food Hall",
      "address2": "Liberty Wharf",
      "address3": "St. Helier",
      "postCode": "JE2 3NY",
      "latitude": 49.185665,
      "longitude": -2.110228
    },
    {
      "name": "R Fresh , Charing Cross",
      "rating": 3,
      "createdAt": "25/01/2025",
      "address1": "12a Charing Cross",
      "address2": "St. Helier",
      "address3": null,
      "postCode": "JE2 3RP",
      "latitude": 49.18522,
      "longitude": -2.10966
    },
    {
      "name": "Highlands College Academy Restaurant",
      "rating": 5,
      "createdAt": "28/01/2025",
      "address1": "Highlands College",
      "address2": "Highlands Lane",
      "address3": "St. Saviour",
      "postCode": "JE1 1HL",
      "latitude": 49.191614,
      "longitude": -2.094016
    },
    {
      "name": "Samphire",
      "rating": 5,
      "createdAt": "08/08/2023",
      "address1": "7-11 Don Street",
      "address2": "St. Helier",
      "address3": null,
      "postCode": "JE2 4TQ",
      "latitude": 49.185444,
      "longitude": -2.105404
    },
    {
      "name": "LV Pharmacy",
      "rating": 5,
      "createdAt": "14/07/2023",
      "address1": "24 Beresford Street",
      "address2": "St. Helier",
      "address3": null,
      "postCode": "JE2 4WN",
      "latitude": 49.185217,
      "longitude": -2.103294
    },
    {
      "name": "Dandy Coffee Shop",
      "rating": 5,
      "createdAt": "09/08/2024",
      "address1": null,
      "address2": "2 Colomberie Court",
      "address3": "St. Helier",
      "postCode": "JE2 4QB",
      "latitude": null,
      "longitude": null
    },
    {
      "name": "Bulls Catering",
      "rating": 5,
      "createdAt": "13/01/2024",
      "address1": "Springfield Stadium",
      "address2": "2 Janvrin Road",
      "address3": "Jersey",
      "postCode": "JE2 4LF",
      "latitude": 49.19149,
      "longitude": -2.09956
    },
    {
      "name": "RNLI Jersey",
      "rating": 5,
      "createdAt": "22/02/2023",
      "address1": null,
      "address2": null,
      "address3": null,
      "postCode": null,
      "latitude": null,
      "longitude": null
    },
    {
      "name": "Deborah's Cakes",
      "rating": 5,
      "createdAt": "26/07/2024",
      "address1": null,
      "address2": null,
      "address3": null,
      "postCode": null,
      "latitude": null,
      "longitude": null
    },
    {
      "name": "Hotel de l'Etang",
      "rating": 5,
      "createdAt": "02/08/2024",
      "address1": "33 Havre des Pas",
      "address2": "St. Helier",
      "address3": null,
      "postCode": "JE2 4UL",
      "latitude": 49.176992,
      "longitude": -2.102229
    },
    {
      "name": "Princes Bar",
      "rating": 5,
      "createdAt": "22/07/2022",
      "address1": "6 Havre des Pas",
      "address2": "St. Helier",
      "address3": null,
      "postCode": "JE2 4UQ",
      "latitude": 49.17689,
      "longitude": -2.10314
    },
    {
      "name": "Clifton Residential Care Home",
      "rating": 3,
      "createdAt": "10/03/2025",
      "address1": "Bagatelle Lane",
      "address2": "St. Saviour",
      "address3": null,
      "postCode": "JE2 7TD",
      "latitude": 49.189759,
      "longitude": -2.090073
    },
    {
      "name": "Ommaroo Hotel",
      "rating": 5,
      "createdAt": "31/01/2024",
      "address1": "Havre des Pas",
      "address2": "St. Helier",
      "address3": null,
      "postCode": "JE2 4UL",
      "latitude": 49.178125,
      "longitude": -2.101715
    },
    {
      "name": "Marina Metro Hotel",
      "rating": 3,
      "createdAt": "20/06/2024",
      "address1": "Havre des Pas",
      "address2": "St. Helier",
      "address3": null,
      "postCode": "JE2 4UL",
      "latitude": 49.178125,
      "longitude": -2.101715
    },
    {
      "name": "Shelter Trust",
      "rating": 4,
      "createdAt": "13/10/2023",
      "address1": "Strathmore",
      "address2": "80 St. Marks Road",
      "address3": "Jersey",
      "postCode": "JE2 4LD",
      "latitude": 40.395496,
      "longitude": -74.21317
    },
    {
      "name": "Prince of Wales",
      "rating": 4,
      "createdAt": "20/02/2023",
      "address1": "8 Hilgrove Street",
      "address2": "St. Helier",
      "address3": null,
      "postCode": "JE2 4SL",
      "latitude": 49.184361,
      "longitude": -2.10413
    },
    {
      "name": "The Dog & Sausage",
      "rating": 5,
      "createdAt": "03/07/2024",
      "address1": "9 Halkett Street",
      "address2": "St. Helier",
      "address3": null,
      "postCode": "JE2 4SL",
      "latitude": 49.18445,
      "longitude": -2.10358
    },
    {
      "name": "Supermarket Alliance (Halkett Street)",
      "rating": 5,
      "createdAt": "15/01/2024",
      "address1": "12 Halkett Street",
      "address2": "St. Helier",
      "address3": null,
      "postCode": "JE2 4WJ",
      "latitude": 49.18453,
      "longitude": -2.10355
    },
    {
      "name": "Dunells Premier Wines",
      "rating": 5,
      "createdAt": "28/07/2022",
      "address1": "La Cave",
      "address2": "37 Hill Street",
      "address3": "Jersey",
      "postCode": "JE2 4UA",
      "latitude": 39.188874,
      "longitude": -90.358719
    },
    {
      "name": "Max Grill",
      "rating": 3,
      "createdAt": "18/08/2023",
      "address1": "46 Bath Street",
      "address2": "St. Helier",
      "address3": null,
      "postCode": "JE2 4SU",
      "latitude": 49.18536,
      "longitude": -2.10237
    },
    {
      "name": "Jersey Delight Ices",
      "rating": 5,
      "createdAt": "18/12/2021",
      "address1": null,
      "address2": null,
      "address3": null,
      "postCode": null,
      "latitude": null,
      "longitude": null
    },
    {
      "name": "Chateau La Chaire Hotel",
      "rating": 2,
      "createdAt": "02/10/2025",
      "address1": "Chateau La Chaire Hotel",
      "address2": "La Vallée de Rozel",
      "address3": "St. Martin",
      "postCode": "JE3 6AJ",
      "latitude": 49.217728,
      "longitude": -2.051631
    },
    {
      "name": "The Rozel Bar and Dining",
      "rating": 0,
      "createdAt": "04/11/2025",
      "address1": "La Vallée de Rozel",
      "address2": "St. Martin",
      "address3": null,
      "postCode": "JE3 6AJ",
      "latitude": 49.217728,
      "longitude": -2.051631
    },
    {
      "name": "Grouville Football Club",
      "rating": 5,
      "createdAt": "01/06/2023",
      "address1": "La Rue du Boulivot",
      "address2": "Grouville",
      "address3": null,
      "postCode": "JE3 9UY",
      "latitude": 49.186255,
      "longitude": -2.062365
    },
    {
      "name": "St. Aubins Sports Bar",
      "rating": 5,
      "createdAt": "02/05/2025",
      "address1": "St. Aubins Wine Bar",
      "address2": "La Rue du Crocquet",
      "address3": "Jersey",
      "postCode": "JE3 8BZ",
      "latitude": 49.189334,
      "longitude": -2.169974
    },
    {
      "name": "The Panorama",
      "rating": 5,
      "createdAt": "13/05/2022",
      "address1": "Panorama Hotel",
      "address2": "La Rue du Crocquet",
      "address3": "Jersey",
      "postCode": "JE3 8BZ",
      "latitude": 43.865135,
      "longitude": -85.37849
    },
    {
      "name": "St. Magloire Guest House",
      "rating": 4,
      "createdAt": "10/06/2024",
      "address1": "La Rue du Crocquet",
      "address2": "St. Brelade",
      "address3": null,
      "postCode": "JE3 8BZ",
      "latitude": 49.189334,
      "longitude": -2.169974
    },
    {
      "name": "Suma's",
      "rating": 4,
      "createdAt": "30/01/2024",
      "address1": "Le Mont de Gouray",
      "address2": "St. Martin",
      "address3": null,
      "postCode": "JE3 6ET",
      "latitude": 49.217728,
      "longitude": -2.051631
    },
    {
      "name": "Prince of Wales Hotel",
      "rating": 4,
      "createdAt": "22/05/2024",
      "address1": "Le Mont de la Greve de Lecq",
      "address2": "St. Ouen",
      "address3": null,
      "postCode": "JE3 2DT",
      "latitude": 49.242504,
      "longitude": -2.203671
    },
    {
      "name": "Newgate Street Newsagents",
      "rating": 3,
      "createdAt": "04/04/2025",
      "address1": "3 Newgate Street",
      "address2": "St. Helier",
      "address3": null,
      "postCode": "JE2 3QU",
      "latitude": 49.187029,
      "longitude": -2.113112
    },
    {
      "name": "Ocean Restaurant, Atlantic Hotel",
      "rating": 5,
      "createdAt": "20/02/2025",
      "address1": "Le Mont de la Pulente",
      "address2": "St. Brelade",
      "address3": null,
      "postCode": "JE3 8HE",
      "latitude": 49.188155,
      "longitude": -2.228531
    },
    {
      "name": "Turkish Delight",
      "rating": 4,
      "createdAt": "24/07/2024",
      "address1": "Takeaway",
      "address2": "17 Mulcaster Street",
      "address3": "Jersey",
      "postCode": "JE2 3NJ",
      "latitude": 49.183115,
      "longitude": -2.106983
    },
    {
      "name": "Greenhills Country House Hotel",
      "rating": 5,
      "createdAt": "01/05/2025",
      "address1": "Greenhills Country Hotel & Restauran",
      "address2": "Le Mont de L'Ecole",
      "address3": "Jersey",
      "postCode": "JE3 7EL",
      "latitude": 39.119433,
      "longitude": -90.327488
    },
    {
      "name": "The Chilli Kitchen",
      "rating": 5,
      "createdAt": "12/06/2025",
      "address1": null,
      "address2": null,
      "address3": null,
      "postCode": null,
      "latitude": null,
      "longitude": null
    },
    {
      "name": "Chambers",
      "rating": 5,
      "createdAt": "20/06/2025",
      "address1": "5 Mulcaster Street",
      "address2": "St. Helier",
      "address3": null,
      "postCode": "JE2 3NJ",
      "latitude": 49.183115,
      "longitude": -2.106983
    },
    {
      "name": "Abbeyfield House",
      "rating": 3,
      "createdAt": "16/10/2024",
      "address1": "Nelson Avenue",
      "address2": "St. Helier",
      "address3": null,
      "postCode": "JE2 4PD",
      "latitude": 49.178599,
      "longitude": -2.099425
    },
    {
      "name": "Cocorico (Events)",
      "rating": 4,
      "createdAt": "04/05/2024",
      "address1": null,
      "address2": null,
      "address3": null,
      "postCode": null,
      "latitude": null,
      "longitude": null
    },
    {
      "name": "Seaweed & Sand",
      "rating": 5,
      "createdAt": "23/03/2023",
      "address1": null,
      "address2": null,
      "address3": null,
      "postCode": null,
      "latitude": null,
      "longitude": null
    },
    {
      "name": "Thai Chinese Park House Restaurant",
      "rating": 3,
      "createdAt": "08/04/2025",
      "address1": "1 Colomberie Parade",
      "address2": "La Colomberie",
      "address3": "Jersey",
      "postCode": "JE2 4QA",
      "latitude": 44.77544,
      "longitude": -78.77686
    },
    {
      "name": "Pomme d'Or Hotel",
      "rating": 5,
      "createdAt": "14/04/2025",
      "address1": "Weighbridge",
      "address2": "St. Helier",
      "address3": null,
      "postCode": "JE2 3NF",
      "latitude": 49.185665,
      "longitude": -2.110228
    },
    {
      "name": "Jersey Post Canteen",
      "rating": 5,
      "createdAt": "30/05/2022",
      "address1": "Sorting Office",
      "address2": "Jersey Postal Headquarters",
      "address3": "St. Saviour",
      "postCode": "JE1 1AA",
      "latitude": 49.194897,
      "longitude": -2.090318
    },
    {
      "name": "St. Paul's Centre",
      "rating": 5,
      "createdAt": "15/03/2024",
      "address1": "St. Pauls Centre",
      "address2": "St. Pauls Gate",
      "address3": "St. Helier",
      "postCode": "JE2 3RL",
      "latitude": 49.185665,
      "longitude": -2.110228
    },
    {
      "name": "The Cabana",
      "rating": 3,
      "createdAt": "31/07/2024",
      "address1": "11-11a Waterloo Street",
      "address2": "St. Helier",
      "address3": null,
      "postCode": "JE2 4WT",
      "latitude": 49.185226,
      "longitude": -2.104861
    },
    {
      "name": "The Lido",
      "rating": 5,
      "createdAt": "25/07/2025",
      "address1": "Havre des Pas Bathing Pool",
      "address2": "Havre des Pas",
      "address3": "St. Helier",
      "postCode": null,
      "latitude": 49.176919,
      "longitude": -2.102792
    },
    {
      "name": "Vinifera",
      "rating": 5,
      "createdAt": "28/06/2024",
      "address1": "4 Broad Street",
      "address2": "St. Helier",
      "address3": null,
      "postCode": "JE2 3RR",
      "latitude": 49.184035,
      "longitude": -2.107455
    },
    {
      "name": "General Hospital (HCS Catering)",
      "rating": 4,
      "createdAt": "04/09/2025",
      "address1": "Gloucester Street",
      "address2": "St. Helier",
      "address3": null,
      "postCode": "JE2 3QR",
      "latitude": 49.187144,
      "longitude": -2.111804
    },
    {
      "name": "The Spice of Life",
      "rating": 5,
      "createdAt": "15/02/2024",
      "address1": "12 Sand Street",
      "address2": "St. Helier",
      "address3": null,
      "postCode": "JE2 3QF",
      "latitude": 49.18542,
      "longitude": -2.11031
    },
    {
      "name": "Fox & Thistle",
      "rating": 5,
      "createdAt": "27/08/2021",
      "address1": "14½",
      "address2": "Queen Street",
      "address3": "Jersey",
      "postCode": "JE2 4WD",
      "latitude": 39.119433,
      "longitude": -90.327488
    },
    {
      "name": "Liberation Square Kiosk",
      "rating": 4,
      "createdAt": "21/08/2023",
      "address1": "Liberation Square",
      "address2": "Esplanade",
      "address3": "Jersey",
      "postCode": "JE2 3QA",
      "latitude": 39.119433,
      "longitude": -90.327488
    },
    {
      "name": "El Tico Cafe",
      "rating": 4,
      "createdAt": "04/04/2024",
      "address1": "La Grande Route Des Mielles",
      "address2": "St. Peter",
      "address3": null,
      "postCode": "JE3 7FN",
      "latitude": 49.214849,
      "longitude": -2.224828
    },
    {
      "name": "Co-Op Locale - Colomberie",
      "rating": 5,
      "createdAt": "26/07/2024",
      "address1": "22 La Colomberie",
      "address2": "St. Helier",
      "address3": null,
      "postCode": "JE2 4QB",
      "latitude": 49.183,
      "longitude": -2.10194
    },
    {
      "name": "Roseville Bistro",
      "rating": 5,
      "createdAt": "19/07/2025",
      "address1": "86 Roseville Street",
      "address2": "St. Helier",
      "address3": null,
      "postCode": "JE2 4PL",
      "latitude": 49.178323,
      "longitude": -2.101037
    },
    {
      "name": "Sprigs Cafe",
      "rating": 4,
      "createdAt": "08/09/2022",
      "address1": "Jersey Lavender Limited",
      "address2": "La Rue du Pont Marquet",
      "address3": "Jersey",
      "postCode": "JE3 8DS",
      "latitude": 30.937499,
      "longitude": -92.305998
    },
    {
      "name": "Charlie Farley's Kitchen",
      "rating": 5,
      "createdAt": "26/06/2025",
      "address1": "Jack Falle Community Centre",
      "address2": "Gordon Le Breton Close",
      "address3": "St. Saviour",
      "postCode": "JE2 7PY",
      "latitude": 49.180342,
      "longitude": -2.086771
    },
    {
      "name": "St Andrew's Community Centre",
      "rating": 5,
      "createdAt": "03/10/2019",
      "address1": "St. Andrews Church",
      "address2": "Le Mont Cochon",
      "address3": "Jersey",
      "postCode": "JE2 3JA",
      "latitude": 49.200905,
      "longitude": -2.129541
    },
    {
      "name": "Hotel de France",
      "rating": 5,
      "createdAt": "15/04/2025",
      "address1": "St. Saviours Road",
      "address2": "St. Saviour",
      "address3": null,
      "postCode": "JE1 7XP",
      "latitude": 49.18823,
      "longitude": -2.097242
    },
    {
      "name": "Jersey Spartan Clubhouse",
      "rating": 4,
      "createdAt": "27/07/2022",
      "address1": "La Grande Route de St. Clément",
      "address2": "St. Clement",
      "address3": null,
      "postCode": "JE2 6QN",
      "latitude": 49.173637,
      "longitude": -2.056212
    },
    {
      "name": "The Tiki Hut",
      "rating": 4,
      "createdAt": "26/07/2022",
      "address1": "10 Wharf Street",
      "address2": "St. Helier",
      "address3": null,
      "postCode": "JE2 3NR",
      "latitude": 49.185665,
      "longitude": -2.110228
    },
    {
      "name": "Holland & Barratt",
      "rating": 5,
      "createdAt": "02/06/2022",
      "address1": "19 King Street",
      "address2": "St. Helier",
      "address3": null,
      "postCode": null,
      "latitude": 49.18429,
      "longitude": -2.10592
    },
    {
      "name": "Bouley Bay Beach Cafe",
      "rating": 4,
      "createdAt": "10/07/2024",
      "address1": "Les Charrières de Boulay",
      "address2": "Trinity",
      "address3": null,
      "postCode": "JE3 5AS",
      "latitude": 49.237314,
      "longitude": -2.085199
    },
    {
      "name": "Molloy's Market Fruit & Veg Ltd",
      "rating": 5,
      "createdAt": "13/07/2023",
      "address1": "114-116 Central Market",
      "address2": "Halkett Place",
      "address3": "Jersey",
      "postCode": "JE2 4WL",
      "latitude": 49.21849,
      "longitude": -2.14198
    },
    {
      "name": "Cafe Connect, Highlands College",
      "rating": 5,
      "createdAt": "11/02/2025",
      "address1": "Highlands College",
      "address2": "College HIll",
      "address3": "St. Saviour",
      "postCode": "JE4 9QA",
      "latitude": 49.194897,
      "longitude": -2.090318
    },
    {
      "name": "Highlands Care Home",
      "rating": 5,
      "createdAt": "28/05/2024",
      "address1": "La Rue Du Froid Vent",
      "address2": "St Saviour",
      "address3": "St. Saviour",
      "postCode": "JE2 7LJ",
      "latitude": 49.192936,
      "longitude": -2.089218
    },
    {
      "name": "Donnas Cake Decorating Supplies",
      "rating": 5,
      "createdAt": "14/02/2024",
      "address1": "56-58 Central Market",
      "address2": "Halkett Place",
      "address3": "Jersey",
      "postCode": "JE2 4WL",
      "latitude": 49.21849,
      "longitude": -2.14198
    },
    {
      "name": "Shuga Coffee",
      "rating": 3,
      "createdAt": "22/07/2024",
      "address1": "Eaton House",
      "address2": "Seaton Place",
      "address3": "Jersey",
      "postCode": "JE2 3QY",
      "latitude": 39.119433,
      "longitude": -90.327488
    },
    {
      "name": "Next",
      "rating": 5,
      "createdAt": "02/06/2022",
      "address1": "46 - 49",
      "address2": "King Street",
      "address3": "Jersey",
      "postCode": "JE4 8NN",
      "latitude": 39.119433,
      "longitude": -90.327488
    },
    {
      "name": "The Sheep Shed",
      "rating": 5,
      "createdAt": "14/03/2024",
      "address1": null,
      "address2": null,
      "address3": null,
      "postCode": null,
      "latitude": null,
      "longitude": null
    },
    {
      "name": "Donut Worry Be Happy",
      "rating": 5,
      "createdAt": "03/11/2022",
      "address1": null,
      "address2": null,
      "address3": null,
      "postCode": null,
      "latitude": null,
      "longitude": null
    },
    {
      "name": "Lady LaLa Ice Cream Bicycle",
      "rating": 4,
      "createdAt": "08/04/2025",
      "address1": null,
      "address2": null,
      "address3": null,
      "postCode": null,
      "latitude": null,
      "longitude": null
    },
    {
      "name": "The Boundary",
      "rating": 4,
      "createdAt": "10/01/2024",
      "address1": "Grainville Pavillion",
      "address2": "Grainville Playing Fields",
      "address3": "St. Saviour",
      "postCode": "JE2 7LG",
      "latitude": 49.194897,
      "longitude": -2.090318
    },
    {
      "name": "Rouge Bouillon Primary School",
      "rating": 5,
      "createdAt": "19/06/2025",
      "address1": "Brighton Road",
      "address2": "St. Helier",
      "address3": null,
      "postCode": null,
      "latitude": 49.192407,
      "longitude": -2.106488
    },
    {
      "name": "Fieldview",
      "rating": 5,
      "createdAt": "11/03/2024",
      "address1": "La Grande Route de St. Martin",
      "address2": "St. Saviour",
      "address3": null,
      "postCode": "JE2 7GS",
      "latitude": 49.199905,
      "longitude": -2.078274
    },
    {
      "name": "Fuel 2 Go Limited",
      "rating": 4,
      "createdAt": "26/02/2024",
      "address1": null,
      "address2": null,
      "address3": null,
      "postCode": null,
      "latitude": null,
      "longitude": null
    },
    {
      "name": "St. Peter's Garden Centre",
      "rating": 5,
      "createdAt": "12/03/2024",
      "address1": "St. Peters Garden Centre",
      "address2": "L'Avenue de la Reine Elizabeth II",
      "address3": "St. Peter",
      "postCode": "JE3 7BP",
      "latitude": 49.206594,
      "longitude": -2.187314
    },
    {
      "name": "Nana's Bakes",
      "rating": 5,
      "createdAt": "02/02/2024",
      "address1": null,
      "address2": null,
      "address3": null,
      "postCode": null,
      "latitude": null,
      "longitude": null
    },
    {
      "name": "United Club",
      "rating": 4,
      "createdAt": "23/07/2024",
      "address1": "Church Street",
      "address2": "St. Helier",
      "address3": null,
      "postCode": "JE2 3NN",
      "latitude": 49.183659,
      "longitude": -2.106247
    },
    {
      "name": "Homefields Farm Shop",
      "rating": 5,
      "createdAt": "30/05/2022",
      "address1": "La Grande Route de St. Clément",
      "address2": "St. Clement",
      "address3": null,
      "postCode": "JE2 6QQ",
      "latitude": 49.173637,
      "longitude": -2.056212
    },
    {
      "name": "Le Hocq Bar & Restaurant",
      "rating": 4,
      "createdAt": "31/10/2023",
      "address1": "La Grande Route de la Côte",
      "address2": "St. Clement",
      "address3": null,
      "postCode": "JE2 6FP",
      "latitude": 49.173637,
      "longitude": -2.056212
    },
    {
      "name": "Hotel Ambassadeur",
      "rating": 4,
      "createdAt": "29/03/2023",
      "address1": "La Grande Route de la Côte",
      "address2": "St. Clement",
      "address3": null,
      "postCode": "JE2 6SB",
      "latitude": 49.173637,
      "longitude": -2.056212
    },
    {
      "name": "Isabella's Restaurant, Union Inn",
      "rating": 4,
      "createdAt": "09/04/2025",
      "address1": "The Union Inn",
      "address2": "La Grande Route De St. Jean",
      "address3": "Jersey",
      "postCode": "JE2 3FL",
      "latitude": 49.246555,
      "longitude": -2.134973
    },
    {
      "name": "Pontac House hotel",
      "rating": 4,
      "createdAt": "10/09/2024",
      "address1": "La Grande Route de la Côte",
      "address2": "St. Clement",
      "address3": null,
      "postCode": "JE2 6SE",
      "latitude": 49.173637,
      "longitude": -2.056212
    },
    {
      "name": "Mont a l'Abbe School",
      "rating": 5,
      "createdAt": "13/05/2025",
      "address1": "La Grande Route De St. Jean",
      "address2": "St. Helier",
      "address3": null,
      "postCode": "JE2 3FN",
      "latitude": 49.239622,
      "longitude": -2.111377
    },
    {
      "name": "Hotel Chocolat",
      "rating": 5,
      "createdAt": "18/06/2024",
      "address1": "26 Queen Street",
      "address2": null,
      "address3": "St. Helier",
      "postCode": "JE2 4WD",
      "latitude": 49.183901,
      "longitude": -2.103631
    },
    {
      "name": "Thalatta Guest House",
      "rating": 3,
      "createdAt": "31/07/2024",
      "address1": "29-31 Cleveland Road",
      "address2": "St. Helier",
      "address3": null,
      "postCode": "JE2 4PB",
      "latitude": 49.17898,
      "longitude": -2.099738
    },
    {
      "name": "Rozel Camp Park",
      "rating": 5,
      "createdAt": "18/08/2022",
      "address1": "La Grande Route de Rozel",
      "address2": "St. Martin",
      "address3": null,
      "postCode": "JE3 6AX",
      "latitude": 49.217728,
      "longitude": -2.051631
    },
    {
      "name": "Spearmel Stores",
      "rating": 4,
      "createdAt": "03/07/2024",
      "address1": "21½ Belmont Road",
      "address2": "St. Helier",
      "address3": null,
      "postCode": "JE2 4SA",
      "latitude": 49.186798,
      "longitude": -2.100894
    },
    {
      "name": "Alliance Club",
      "rating": 4,
      "createdAt": "31/05/2025",
      "address1": "8 Bond Street",
      "address2": "St. Helier",
      "address3": null,
      "postCode": "JE2 3NP",
      "latitude": 49.18371,
      "longitude": -2.10736
    },
    {
      "name": "The Bouncing Brew",
      "rating": 3,
      "createdAt": "19/06/2023",
      "address1": null,
      "address2": null,
      "address3": null,
      "postCode": null,
      "latitude": null,
      "longitude": null
    },
    {
      "name": "Roberts Garage - Springfield",
      "rating": 4,
      "createdAt": "01/07/2024",
      "address1": "Roberts",
      "address2": "Springfield Road",
      "address3": "Jersey",
      "postCode": "JE2 4LE",
      "latitude": 40.701952,
      "longitude": -74.320072
    },
    {
      "name": "Rouge Bouillon School (Ace of Clubs)",
      "rating": 3,
      "createdAt": "24/04/2023",
      "address1": "Rouge Bouillon School & Nursery",
      "address2": "Brighton Road",
      "address3": "Jersey",
      "postCode": "JE2 3YN",
      "latitude": 38.991504,
      "longitude": -90.21674
    },
    {
      "name": "St. Lawrence Parish Hall",
      "rating": 5,
      "createdAt": "17/02/2023",
      "address1": "La Grande Route de St. Laurent",
      "address2": "St. Lawrence",
      "address3": null,
      "postCode": "JE3 1NG",
      "latitude": 49.214912,
      "longitude": -2.141689
    },
    {
      "name": "The Taste",
      "rating": 4,
      "createdAt": "28/06/2024",
      "address1": "16 Broad Street",
      "address2": "St. Helier",
      "address3": null,
      "postCode": "JE2 3RR",
      "latitude": 49.18432,
      "longitude": -2.10786
    },
    {
      "name": "Columbus Street Corner Shop",
      "rating": 5,
      "createdAt": "02/08/2022",
      "address1": "10 Columbus Street",
      "address2": "St. Helier",
      "address3": null,
      "postCode": "JE2 3YL",
      "latitude": 49.1904,
      "longitude": -2.10671
    },
    {
      "name": "Club Carrefour",
      "rating": 5,
      "createdAt": "22/01/2024",
      "address1": "La Grande Route de St. Laurent",
      "address2": "St. Lawrence",
      "address3": null,
      "postCode": "JE3 1NH",
      "latitude": 49.214912,
      "longitude": -2.141689
    },
    {
      "name": "Le Rocquier School",
      "rating": 4,
      "createdAt": "18/06/2024",
      "address1": "La Grande Route de St. Clément",
      "address2": "St. Clement",
      "address3": null,
      "postCode": "JE2 6QP",
      "latitude": 49.173637,
      "longitude": -2.056212
    },
    {
      "name": "Robeline Cider - Event Catering",
      "rating": 5,
      "createdAt": "13/09/2023",
      "address1": null,
      "address2": null,
      "address3": null,
      "postCode": null,
      "latitude": null,
      "longitude": null
    },
    {
      "name": "Le Braye Cafe",
      "rating": 5,
      "createdAt": "16/04/2025",
      "address1": "La Grande Route Des Mielles",
      "address2": "St. Brelade",
      "address3": null,
      "postCode": "JE3 8FN",
      "latitude": 49.214849,
      "longitude": -2.224828
    },
    {
      "name": "Jersey Pearl & Cafe",
      "rating": 5,
      "createdAt": "15/02/2024",
      "address1": "La Grande Route des Mielles",
      "address2": "St. Ouen",
      "address3": null,
      "postCode": "JE3 2FN",
      "latitude": 49.214849,
      "longitude": -2.224828
    },
    {
      "name": "Watersplash Beach Bar & Diner",
      "rating": 5,
      "createdAt": "18/04/2025",
      "address1": "La Grande Route Des Mielles",
      "address2": "St. Peter",
      "address3": null,
      "postCode": "JE3 7FN",
      "latitude": 49.214849,
      "longitude": -2.224828
    },
    {
      "name": "Green Island Restaurant",
      "rating": 3,
      "createdAt": "05/07/2024",
      "address1": "La Rue de Samarès",
      "address2": "St. Clement",
      "address3": null,
      "postCode": "JE2 6LY",
      "latitude": 49.173637,
      "longitude": -2.056212
    },
    {
      "name": "The Priory Inn",
      "rating": 4,
      "createdAt": "22/05/2024",
      "address1": "La Grande Rue",
      "address2": "St. Mary",
      "address3": null,
      "postCode": "JE3 3BD",
      "latitude": 49.236404,
      "longitude": -2.171625
    },
    {
      "name": "Bacchus Wine Bar",
      "rating": 5,
      "createdAt": "26/06/2025",
      "address1": "44 La Motte Street",
      "address2": "St. Helier",
      "address3": null,
      "postCode": "JE2 4SZ",
      "latitude": 49.18391,
      "longitude": -2.10008
    },
    {
      "name": "La Haule Manor Hotel",
      "rating": 4,
      "createdAt": "30/09/2024",
      "address1": "La Neuve Route",
      "address2": "St. Brelade",
      "address3": null,
      "postCode": "JE3 8BS",
      "latitude": 49.189827,
      "longitude": -2.168792
    },
    {
      "name": "St. Brelade's Parish Hall",
      "rating": 4,
      "createdAt": "29/09/2023",
      "address1": "La Neuve Route",
      "address2": "St. Brelade",
      "address3": null,
      "postCode": "JE3 8BS",
      "latitude": 49.189827,
      "longitude": -2.168792
    },
    {
      "name": "Liberation Quality Drinks",
      "rating": 5,
      "createdAt": "21/11/2023",
      "address1": "Victor Hugo Wines",
      "address2": "Longueville Road",
      "address3": "Jersey",
      "postCode": "JE2 7SA",
      "latitude": 49.183385,
      "longitude": -2.078407
    },
    {
      "name": "Longueville Manor Hotel & Restaurant",
      "rating": 5,
      "createdAt": "17/07/2024",
      "address1": "Longueville Road",
      "address2": "St. Saviour",
      "address3": null,
      "postCode": "JE2 7WF",
      "latitude": 49.183385,
      "longitude": -2.078407
    },
    {
      "name": "The Prime Fry",
      "rating": 4,
      "createdAt": "02/08/2022",
      "address1": "The Prime Fry",
      "address2": "37 Trinity Road",
      "address3": "Jersey",
      "postCode": "JE2 4NH",
      "latitude": 49.234493,
      "longitude": -2.092927
    },
    {
      "name": "Salty Dog Restaurant",
      "rating": 5,
      "createdAt": "31/01/2025",
      "address1": "Le Boulevard",
      "address2": "St. Brelade",
      "address3": null,
      "postCode": "JE3 8AB",
      "latitude": 49.186263,
      "longitude": -2.169611
    },
    {
      "name": "Hotel Sandranne",
      "rating": 5,
      "createdAt": "21/07/2025",
      "address1": "Hotel Sandranne",
      "address2": "20 Rouge Bouillon",
      "address3": "Jersey",
      "postCode": "JE2 3ZA",
      "latitude": 49.189997,
      "longitude": -2.110137
    },
    {
      "name": "Robin Hood Inn",
      "rating": 5,
      "createdAt": "02/08/2022",
      "address1": "The Robin Hood",
      "address2": "Trinity Road",
      "address3": "Jersey",
      "postCode": "JE2 4NH",
      "latitude": 49.234493,
      "longitude": -2.092927
    },
    {
      "name": "Hotel Savoy and Yasei",
      "rating": 4,
      "createdAt": "13/07/2022",
      "address1": "37 Rouge Bouillon",
      "address2": "St. Helier",
      "address3": null,
      "postCode": "JE2 3ZA",
      "latitude": 49.191394,
      "longitude": -2.109277
    },
    {
      "name": "Royal Jersey Golf Club",
      "rating": 4,
      "createdAt": "21/05/2024",
      "address1": "Le Chemin au Greves",
      "address2": "Grouville",
      "address3": null,
      "postCode": "JE3 9BD",
      "latitude": 49.184812,
      "longitude": -2.037443
    },
    {
      "name": "The Oxford",
      "rating": 4,
      "createdAt": "17/04/2025",
      "address1": "6 Union Street",
      "address2": "St. Helier",
      "address3": null,
      "postCode": "JE2 3RF",
      "latitude": 49.18621,
      "longitude": -2.10649
    },
    {
      "name": "Chloe Bowler",
      "rating": 5,
      "createdAt": "09/02/2023",
      "address1": null,
      "address2": null,
      "address3": null,
      "postCode": null,
      "latitude": null,
      "longitude": null
    },
    {
      "name": "Casa Paco, La Folie Harbour",
      "rating": 4,
      "createdAt": "08/04/2025",
      "address1": "Casa Paco, La Folie Quay",
      "address2": "Commercial Buildings",
      "address3": "St. Helier",
      "postCode": null,
      "latitude": 49.185665,
      "longitude": -2.110228
    },
    {
      "name": "Fin and Feather",
      "rating": 5,
      "createdAt": "03/02/2023",
      "address1": "27-28 Beresford Market",
      "address2": "Beresford Street",
      "address3": "Jersey",
      "postCode": "JE2 4WX",
      "latitude": 39.119433,
      "longitude": -90.327488
    },
    {
      "name": "Gorey Youth Project",
      "rating": 5,
      "createdAt": "01/05/2018",
      "address1": "Gorey Youth Club",
      "address2": "Hilgrove Variety Youth Centre",
      "address3": "Grouville",
      "postCode": "JE3 9EB",
      "latitude": 49.200801,
      "longitude": -2.092713
    },
    {
      "name": "Norfolk Lodge Hotel",
      "rating": 5,
      "createdAt": "25/06/2025",
      "address1": "Norfolk Lodge Hotel",
      "address2": "57 Rouge Bouillon",
      "address3": "Jersey",
      "postCode": "JE2 3ZB",
      "latitude": 49.192778,
      "longitude": -2.107506
    },
    {
      "name": "The Peirson",
      "rating": 4,
      "createdAt": "11/06/2025",
      "address1": "17 Royal Square",
      "address2": "St. Helier",
      "address3": null,
      "postCode": "JE2 4WA",
      "latitude": 49.185665,
      "longitude": -2.110228
    },
    {
      "name": "Cock & Bottle Public House",
      "rating": 5,
      "createdAt": "06/06/2025",
      "address1": "18-19 Royal Square",
      "address2": "St. Helier",
      "address3": null,
      "postCode": "JE2 4WA",
      "latitude": 49.185665,
      "longitude": -2.110228
    },
    {
      "name": "Age Concern (Events)",
      "rating": 5,
      "createdAt": "16/12/2022",
      "address1": null,
      "address2": null,
      "address3": null,
      "postCode": null,
      "latitude": null,
      "longitude": null
    },
    {
      "name": "The Salvation Army Community Cafe",
      "rating": 5,
      "createdAt": "26/07/2022",
      "address1": "The Salvation Army Hall",
      "address2": "Minden Street",
      "address3": "Jersey",
      "postCode": "JE2 4WR",
      "latitude": 39.127655,
      "longitude": -90.324523
    },
    {
      "name": "Silkworth",
      "rating": 4,
      "createdAt": "30/05/2024",
      "address1": "Silkworth",
      "address2": "6 Vauxhall Street",
      "address3": "Jersey",
      "postCode": "JE2 4TJ",
      "latitude": 49.18785,
      "longitude": -2.10496
    },
    {
      "name": "Merton Hotel",
      "rating": 5,
      "createdAt": "15/07/2025",
      "address1": "Belvedere Hill",
      "address2": "St. Saviour",
      "address3": null,
      "postCode": "JE2 7RX",
      "latitude": 49.179903,
      "longitude": -2.093114
    },
    {
      "name": "Falles Service Station",
      "rating": 3,
      "createdAt": "06/10/2025",
      "address1": "Service Station",
      "address2": "Longueville Road",
      "address3": "Jersey",
      "postCode": "JE1 1BP",
      "latitude": 49.183385,
      "longitude": -2.078407
    },
    {
      "name": "Silver Star Community Playgroup",
      "rating": 5,
      "createdAt": "07/12/2022",
      "address1": "St Marys Youth Community Centre",
      "address2": "La Rue du Pont",
      "address3": "Jersey",
      "postCode": "JE3 3AS",
      "latitude": 49.167499,
      "longitude": -2.033118
    },
    {
      "name": "Grouville Parish Church",
      "rating": 4,
      "createdAt": "28/11/2023",
      "address1": "La Rue à Don",
      "address2": "Grouville",
      "address3": null,
      "postCode": "JE3 9GB",
      "latitude": 49.188577,
      "longitude": -2.040517
    },
    {
      "name": "St Ewolds Residential Home",
      "rating": 5,
      "createdAt": "09/07/2024",
      "address1": "Balmoral Drive",
      "address2": "St. Helier",
      "address3": null,
      "postCode": "JE2 4NJ",
      "latitude": 49.196097,
      "longitude": -2.099413
    },
    {
      "name": "St. Brelade Bowls Club",
      "rating": 5,
      "createdAt": "06/10/2025",
      "address1": "St. Brelade Bowls Club",
      "address2": "Les Quennevais Sports Centre",
      "address3": "St. Brelade",
      "postCode": "JE3 8GW",
      "latitude": 49.193024,
      "longitude": -2.199614
    },
    {
      "name": "Kelly's Cakes",
      "rating": 5,
      "createdAt": "11/12/2023",
      "address1": null,
      "address2": null,
      "address3": null,
      "postCode": null,
      "latitude": null,
      "longitude": null
    },
    {
      "name": "Samantha Boon Wedding Cake Design",
      "rating": 5,
      "createdAt": "07/03/2024",
      "address1": null,
      "address2": null,
      "address3": null,
      "postCode": null,
      "latitude": null,
      "longitude": null
    },
    {
      "name": "New Look",
      "rating": 5,
      "createdAt": "21/07/2022",
      "address1": "New Look",
      "address2": "6  King Street",
      "address3": "St. Helier",
      "postCode": "JE2 4WF",
      "latitude": 49.1842,
      "longitude": -2.10535
    },
    {
      "name": "National Trust for Jersey",
      "rating": 5,
      "createdAt": "26/07/2022",
      "address1": "16 New Street",
      "address2": "St. Helier",
      "address3": null,
      "postCode": "JE2 3TE",
      "latitude": 49.186138,
      "longitude": -2.10609
    },
    {
      "name": "Marks & Spencer - St John",
      "rating": 5,
      "createdAt": "22/05/2024",
      "address1": "La Route des Issues",
      "address2": "St. John",
      "address3": null,
      "postCode": "JE3 4FA",
      "latitude": 49.243149,
      "longitude": -2.127296
    },
    {
      "name": "Love Bird Too Ltd",
      "rating": 5,
      "createdAt": "08/09/2022",
      "address1": "Jersey War Tunnels",
      "address2": "Les Charrières Malorey",
      "address3": "Jersey",
      "postCode": "JE3 1FU",
      "latitude": 49.212651,
      "longitude": -2.153597
    },
    {
      "name": "Portelet Bay Cafe",
      "rating": 4,
      "createdAt": "08/07/2024",
      "address1": "Portelet Bay",
      "address2": "La Rue Voisin",
      "address3": "Jersey",
      "postCode": "JE3 8AU",
      "latitude": 39.119433,
      "longitude": -90.327488
    },
    {
      "name": "The Kitchen Cupboard",
      "rating": 5,
      "createdAt": "07/08/2023",
      "address1": "12½",
      "address2": "Charing Cross",
      "address3": "Jersey",
      "postCode": "JE2 3RP",
      "latitude": 43.865135,
      "longitude": -85.37849
    },
    {
      "name": "Move on Cafe",
      "rating": 4,
      "createdAt": "31/07/2024",
      "address1": "Old Harbour Offices",
      "address2": "La Route de la Libération",
      "address3": "Jersey",
      "postCode": "JE2 3NY",
      "latitude": 51.34083,
      "longitude": 12.375101
    },
    {
      "name": "La Fregate & Thai by Night",
      "rating": 3,
      "createdAt": "25/02/2025",
      "address1": "Les Jardin de la Mer",
      "address2": "Esplanade",
      "address3": "Jersey",
      "postCode": "JE2 4ZT",
      "latitude": 51.133481,
      "longitude": 10.018343
    },
    {
      "name": "The Old Courthouse Inn",
      "rating": 4,
      "createdAt": "30/01/2024",
      "address1": "Restaurant",
      "address2": "Le Boulevard",
      "address3": "Jersey",
      "postCode": "JE3 8AB",
      "latitude": 43.865135,
      "longitude": -85.37849
    },
    {
      "name": "Tilleys",
      "rating": 4,
      "createdAt": "22/08/2022",
      "address1": "Beuvelande Camp Site",
      "address2": "La Rue de Beuvelande",
      "address3": "Jersey",
      "postCode": "JE3 6EZ",
      "latitude": 49.210847,
      "longitude": -2.043882
    },
    {
      "name": "Market Juice Bar",
      "rating": 4,
      "createdAt": "20/07/2022",
      "address1": "91 Central Market",
      "address2": "Halkett Place",
      "address3": "Jersey",
      "postCode": "JE2 4WL",
      "latitude": 49.21849,
      "longitude": -2.14198
    },
    {
      "name": "Roast Bistro",
      "rating": 4,
      "createdAt": "05/01/2023",
      "address1": "28 Sand Street",
      "address2": "St. Helier",
      "address3": null,
      "postCode": null,
      "latitude": 49.18566,
      "longitude": -2.11093
    },
    {
      "name": "Dandy",
      "rating": 3,
      "createdAt": "29/01/2025",
      "address1": "Unit 2",
      "address2": "Conway House",
      "address3": "St. Helier",
      "postCode": "JE2 3NT",
      "latitude": 49.185665,
      "longitude": -2.110228
    },
    {
      "name": "Polo Market",
      "rating": 4,
      "createdAt": "31/08/2023",
      "address1": "31 Devonshire Place",
      "address2": "St. Helier",
      "address3": null,
      "postCode": "JE2 3RD",
      "latitude": 49.1871,
      "longitude": -2.1079
    },
    {
      "name": "Candyfloss",
      "rating": 4,
      "createdAt": "04/09/2023",
      "address1": null,
      "address2": null,
      "address3": null,
      "postCode": null,
      "latitude": null,
      "longitude": null
    },
    {
      "name": "The Arches - St. Catherine's",
      "rating": 5,
      "createdAt": "21/05/2024",
      "address1": null,
      "address2": null,
      "address3": null,
      "postCode": null,
      "latitude": null,
      "longitude": null
    },
    {
      "name": "Simple Simon's",
      "rating": 4,
      "createdAt": "14/02/2024",
      "address1": "4 Charing Cross",
      "address2": "St. Helier",
      "address3": null,
      "postCode": "JE2 3RP",
      "latitude": 49.185027,
      "longitude": -2.108923
    },
    {
      "name": "Colleen's Cafe",
      "rating": 5,
      "createdAt": "15/07/2025",
      "address1": "Commercial Premises",
      "address2": "La Greve de Lecq",
      "address3": "Jersey",
      "postCode": "JE3 2DL",
      "latitude": 49.248716,
      "longitude": -2.20353
    },
    {
      "name": "Fast and Tasty Food",
      "rating": 4,
      "createdAt": "28/02/2024",
      "address1": null,
      "address2": null,
      "address3": null,
      "postCode": null,
      "latitude": null,
      "longitude": null
    },
    {
      "name": "The Old England",
      "rating": 4,
      "createdAt": "05/08/2022",
      "address1": "10 Cheapside",
      "address2": "St. Helier",
      "address3": null,
      "postCode": "JE2 3PG",
      "latitude": 49.18888,
      "longitude": -2.1125
    },
    {
      "name": "The Potato Shack",
      "rating": 5,
      "createdAt": "13/03/2025",
      "address1": "Woodlands Fram",
      "address2": "La Rue de Maupertuis",
      "address3": "Jersey",
      "postCode": "JE2 3HG",
      "latitude": 39.119433,
      "longitude": -90.327488
    },
    {
      "name": "Casa Paco",
      "rating": 3,
      "createdAt": "24/07/2025",
      "address1": "38-41 Central Market",
      "address2": "Halkett Place",
      "address3": "Jersey",
      "postCode": "JE2 4WL",
      "latitude": 49.21849,
      "longitude": -2.14198
    },
    {
      "name": "Valley Foods (Caring Cooks)",
      "rating": 4,
      "createdAt": "24/06/2024",
      "address1": "Valley Foods",
      "address2": "La Rue de la Solitude",
      "address3": "Jersey",
      "postCode": "JE3 6DF",
      "latitude": 39.119433,
      "longitude": -90.327488
    },
    {
      "name": "AHA Cafe Lounge and Restaurant",
      "rating": 5,
      "createdAt": "05/06/2024",
      "address1": "Howard Davis Park",
      "address2": "St Clements Road",
      "address3": "Jersey",
      "postCode": "JE2 7PD",
      "latitude": 39.119433,
      "longitude": -90.327488
    },
    {
      "name": "Premier Inn (Bath Street)",
      "rating": 5,
      "createdAt": "16/02/2024",
      "address1": "92 Bath Street",
      "address2": "St. Helier",
      "address3": null,
      "postCode": "JE2 4SU",
      "latitude": 49.18713,
      "longitude": -2.1025
    },
    {
      "name": "Little Squirrels Nursery",
      "rating": 5,
      "createdAt": "15/12/2022",
      "address1": "La Route de la Haule",
      "address2": "St. Peter",
      "address3": null,
      "postCode": "JE3 7BA",
      "latitude": 49.21283,
      "longitude": -2.18372
    },
    {
      "name": "St Joseph's Care Home",
      "rating": 5,
      "createdAt": "04/03/2025",
      "address1": "Care Home",
      "address2": "St. Johns Road",
      "address3": "Jersey",
      "postCode": "JE2 4XZ",
      "latitude": 39.119433,
      "longitude": -90.327488
    },
    {
      "name": "The Waffle Wagon",
      "rating": 5,
      "createdAt": "14/02/2025",
      "address1": null,
      "address2": null,
      "address3": null,
      "postCode": null,
      "latitude": null,
      "longitude": null
    },
    {
      "name": "The Beach Club",
      "rating": 5,
      "createdAt": "19/03/2025",
      "address1": "Le Mont Sohier",
      "address2": "St. Brelade",
      "address3": null,
      "postCode": "JE3 8EA",
      "latitude": 49.184566,
      "longitude": -2.190593
    },
    {
      "name": "Belle's Bites",
      "rating": 5,
      "createdAt": "03/09/2021",
      "address1": null,
      "address2": null,
      "address3": null,
      "postCode": null,
      "latitude": null,
      "longitude": null
    },
    {
      "name": "Binney & Boarder",
      "rating": 3,
      "createdAt": "22/09/2025",
      "address1": null,
      "address2": null,
      "address3": null,
      "postCode": null,
      "latitude": null,
      "longitude": null
    },
    {
      "name": "La Croix Guest House",
      "rating": 5,
      "createdAt": "10/06/2024",
      "address1": "La Rue de la Croix",
      "address2": "St. Ouen",
      "address3": null,
      "postCode": "JE3 2HA",
      "latitude": 49.23351,
      "longitude": -2.202041
    },
    {
      "name": "Jersey Kitchen at The Windmill",
      "rating": 4,
      "createdAt": "12/04/2023",
      "address1": "The Windmill",
      "address2": "Les Chenolles",
      "address3": "Jersey",
      "postCode": "JE3 7DW",
      "latitude": 49.243123,
      "longitude": -2.136431
    },
    {
      "name": "La Boutique Normande",
      "rating": 5,
      "createdAt": "26/01/2023",
      "address1": "71 Halkett Place",
      "address2": "St. Helier",
      "address3": null,
      "postCode": "JE2 4WG",
      "latitude": 49.186017,
      "longitude": -2.104358
    },
    {
      "name": "Trinity School",
      "rating": 4,
      "createdAt": "29/02/2024",
      "address1": "Trinity School",
      "address2": "La Route de la Trinité",
      "address3": "Jersey",
      "postCode": "JE3 5JP",
      "latitude": 49.234493,
      "longitude": -2.092927
    },
    {
      "name": "Waitrose (Cafe)",
      "rating": 5,
      "createdAt": "29/09/2022",
      "address1": "La Route Orange",
      "address2": "St. Brelade",
      "address3": null,
      "postCode": "JE3 8NG",
      "latitude": 49.188669,
      "longitude": -2.21175
    },
    {
      "name": "Jersey Gaming Hub",
      "rating": 5,
      "createdAt": "25/07/2023",
      "address1": "6 The Parade",
      "address2": "St. Helier",
      "address3": null,
      "postCode": "JE2 3QP",
      "latitude": 49.1869,
      "longitude": -2.11047
    },
    {
      "name": "La Hacienda",
      "rating": 2,
      "createdAt": "17/04/2025",
      "address1": "La Hacienda",
      "address2": "9  Caledonia Place",
      "address3": "St. Helier",
      "postCode": "JE2 3NG",
      "latitude": 49.18228,
      "longitude": -2.10786
    },
    {
      "name": "Café Louise",
      "rating": 4,
      "createdAt": "06/07/2023",
      "address1": "Gorey Pier",
      "address2": "St. Martin",
      "address3": null,
      "postCode": "JE3 6EW",
      "latitude": 49.199398,
      "longitude": -2.020463
    },
    {
      "name": "The Mary Rose",
      "rating": 5,
      "createdAt": "05/10/2023",
      "address1": "18 Mulcaster Street",
      "address2": "St. Helier",
      "address3": null,
      "postCode": "JE2 3NJ",
      "latitude": 49.183115,
      "longitude": -2.106983
    },
    {
      "name": "The Boat House & The Anchor Club",
      "rating": 3,
      "createdAt": "13/05/2025",
      "address1": "1 North Quay",
      "address2": "La Neuve Route",
      "address3": "Jersey",
      "postCode": "JE3 8BS",
      "latitude": 30.937499,
      "longitude": -92.305998
    },
    {
      "name": "The Paddock & Tipsy Camper",
      "rating": 5,
      "createdAt": "30/09/2023",
      "address1": null,
      "address2": null,
      "address3": null,
      "postCode": null,
      "latitude": null,
      "longitude": null
    },
    {
      "name": "Boucher du Nord",
      "rating": 5,
      "createdAt": "29/04/2025",
      "address1": "Temple Court",
      "address2": "La Rue du Temple",
      "address3": "Jersey",
      "postCode": "JE3 4BJ",
      "latitude": 49.246451,
      "longitude": -2.138041
    },
    {
      "name": "Belvedere Leisure Shop",
      "rating": 5,
      "createdAt": "25/10/2023",
      "address1": "Merton Leisure Club & Aquadome",
      "address2": "Belvedere Hill",
      "address3": "Jersey",
      "postCode": "JE2 7RP",
      "latitude": 49.21849,
      "longitude": -2.14198
    },
    {
      "name": "Thyme Out West (HCS Catering)",
      "rating": 4,
      "createdAt": "22/01/2024",
      "address1": "Enid Quenault House",
      "address2": "Les Quennevais Park",
      "address3": "St. Brelade",
      "postCode": "JE3 8JW",
      "latitude": 49.192715,
      "longitude": -2.202559
    },
    {
      "name": "Part in the Frame",
      "rating": 5,
      "createdAt": "02/10/2023",
      "address1": "19  Commercial Buildings",
      "address2": null,
      "address3": "St. Helier",
      "postCode": "JE2 3NB",
      "latitude": 49.18052,
      "longitude": -2.1089
    },
    {
      "name": "St. John's Village Cafe",
      "rating": 5,
      "createdAt": "26/04/2024",
      "address1": "3 Temple Court",
      "address2": "La Rue du Temple",
      "address3": "Jersey",
      "postCode": "JE3 4BJ",
      "latitude": 39.119433,
      "longitude": -90.327488
    },
    {
      "name": "Avoca Villa Guest House",
      "rating": 5,
      "createdAt": "15/08/2022",
      "address1": "Avoca Villa Guest House",
      "address2": "92 Great Union Road",
      "address3": "Jersey",
      "postCode": "JE2 3WA",
      "latitude": 40.696426,
      "longitude": -74.269888
    },
    {
      "name": "The Royal British Legion",
      "rating": 5,
      "createdAt": "31/05/2024",
      "address1": "Great Union Street",
      "address2": "St. Helier",
      "address3": null,
      "postCode": "JE2 3YD",
      "latitude": 49.187453,
      "longitude": -2.106376
    },
    {
      "name": "Maison La Corderie",
      "rating": 5,
      "createdAt": "21/02/2025",
      "address1": "Green Street",
      "address2": "St. Helier",
      "address3": null,
      "postCode": "JE2 4UG",
      "latitude": 49.178722,
      "longitude": -2.104437
    },
    {
      "name": "Forum Wine Bar",
      "rating": 5,
      "createdAt": "25/09/2023",
      "address1": "Ground Floor",
      "address2": "13 Grenville Street",
      "address3": "Jersey",
      "postCode": "JE2 4UF",
      "latitude": 49.18192,
      "longitude": -2.10206
    },
    {
      "name": "Roberts Garage - St Clement",
      "rating": 3,
      "createdAt": "20/03/2025",
      "address1": "La Grève d'Azette",
      "address2": "St. Clement",
      "address3": null,
      "postCode": "JE2 6PT",
      "latitude": 49.173637,
      "longitude": -2.056212
    },
    {
      "name": "Rice Bowl Restaurant",
      "rating": 3,
      "createdAt": "23/04/2025",
      "address1": "La Grève d'Azette",
      "address2": "St. Clement",
      "address3": null,
      "postCode": "JE2 6PX",
      "latitude": 49.173637,
      "longitude": -2.056212
    },
    {
      "name": "The Halkett",
      "rating": 5,
      "createdAt": "16/07/2025",
      "address1": "53 Halkett Place",
      "address2": "St. Helier",
      "address3": null,
      "postCode": "JE2 4WG",
      "latitude": 49.185971,
      "longitude": -2.104371
    },
    {
      "name": "Cooper & Co",
      "rating": 4,
      "createdAt": "26/07/2024",
      "address1": "57  Halkett Place",
      "address2": null,
      "address3": "St. Helier",
      "postCode": "JE2 4WG",
      "latitude": 49.185989,
      "longitude": -2.104366
    },
    {
      "name": "Awabi",
      "rating": 4,
      "createdAt": "01/07/2025",
      "address1": "63 Halket Place",
      "address2": "St. Helier",
      "address3": null,
      "postCode": null,
      "latitude": 49.18572,
      "longitude": -2.10435
    },
    {
      "name": "Bay Stores",
      "rating": 3,
      "createdAt": "29/07/2024",
      "address1": "Weston Villas",
      "address2": "La Route de St. Aubin",
      "address3": "Jersey",
      "postCode": "JE2 3SF",
      "latitude": 49.198121,
      "longitude": -2.147153
    },
    {
      "name": "Sun Bowls Club",
      "rating": 4,
      "createdAt": "02/08/2022",
      "address1": "La Route ès Nouaux",
      "address2": "St. Helier",
      "address3": null,
      "postCode": "JE2 4ZJ",
      "latitude": 49.195207,
      "longitude": -2.12536
    },
    {
      "name": "La Moye Golf Club",
      "rating": 5,
      "createdAt": "22/05/2024",
      "address1": "La Route Orange",
      "address2": "St. Brelade",
      "address3": null,
      "postCode": "JE3 8GQ",
      "latitude": 49.188669,
      "longitude": -2.21175
    },
    {
      "name": "Acorn Nursery",
      "rating": 5,
      "createdAt": "08/05/2025",
      "address1": "Le Hurel",
      "address2": "La Rue du Tas de Geon",
      "address3": "Jersey",
      "postCode": "JE3 5AN",
      "latitude": 51.34083,
      "longitude": 12.375101
    },
    {
      "name": "Midland Stores (1987) Ltd",
      "rating": 3,
      "createdAt": "22/09/2025",
      "address1": "La Rue du Trot",
      "address2": "St. Saviour",
      "address3": null,
      "postCode": "JE2 7JQ",
      "latitude": 49.20793,
      "longitude": -2.066015
    },
    {
      "name": "Beachcombers Hotel",
      "rating": 2,
      "createdAt": "12/02/2025",
      "address1": "Beachcombers Hotel",
      "address2": "La Rue à Don",
      "address3": "Grouville",
      "postCode": "JE3 9GB",
      "latitude": 49.188577,
      "longitude": -2.040517
    },
    {
      "name": "Rozel Rovers Football Club",
      "rating": 5,
      "createdAt": "21/02/2023",
      "address1": "La Route de St. Jean",
      "address2": "St. Lawrence",
      "address3": null,
      "postCode": "JE3 1ND",
      "latitude": 49.239622,
      "longitude": -2.111377
    },
    {
      "name": "Trinity Arms Public House",
      "rating": 4,
      "createdAt": "11/03/2024",
      "address1": "La Rue ès Picots",
      "address2": "Trinity",
      "address3": null,
      "postCode": "JE3 5JX",
      "latitude": 49.232969,
      "longitude": -2.086812
    },
    {
      "name": "Lavender Villa Residential Ltd",
      "rating": 5,
      "createdAt": "03/03/2025",
      "address1": "Lavender Villa Residential Home",
      "address2": "La Rue à Don",
      "address3": "Jersey",
      "postCode": "JE3 9DX",
      "latitude": 49.188577,
      "longitude": -2.040517
    },
    {
      "name": "Hollies Day Care Centre (HCS Catering)",
      "rating": 5,
      "createdAt": "27/02/2025",
      "address1": "La Rue Hilgrove",
      "address2": "Grouville",
      "address3": null,
      "postCode": "JE3 9EZ",
      "latitude": 49.19781,
      "longitude": -2.032303
    },
    {
      "name": "Mr Churros",
      "rating": 4,
      "createdAt": "15/05/2024",
      "address1": null,
      "address2": null,
      "address3": null,
      "postCode": null,
      "latitude": null,
      "longitude": null
    },
    {
      "name": "Five Oaks Inn",
      "rating": 5,
      "createdAt": "05/12/2023",
      "address1": "La Rue à la Dame",
      "address2": "St. Saviour",
      "address3": null,
      "postCode": "JE2 7NH",
      "latitude": 49.202273,
      "longitude": -2.085331
    },
    {
      "name": "H.M. Prison La Moye",
      "rating": 5,
      "createdAt": "01/03/2023",
      "address1": "La Rue Baal",
      "address2": "St. Brelade",
      "address3": null,
      "postCode": "JE3 8HQ",
      "latitude": 49.179905,
      "longitude": -2.218703
    },
    {
      "name": "The Village Tearoom",
      "rating": 5,
      "createdAt": "10/04/2024",
      "address1": "St Peters Youth & Community Centre",
      "address2": "Rue des Fosses",
      "address3": "Jersey",
      "postCode": "JE3 7AH",
      "latitude": 49.211777,
      "longitude": -2.182927
    },
    {
      "name": "Samares Primary School",
      "rating": 4,
      "createdAt": "25/09/2023",
      "address1": "School Road",
      "address2": "St. Clement",
      "address3": null,
      "postCode": "JE2 6TG",
      "latitude": 49.169796,
      "longitude": -2.084149
    },
    {
      "name": "Glanville Residential Home",
      "rating": 5,
      "createdAt": "19/07/2024",
      "address1": "70-74 St. Marks Road",
      "address2": "St. Saviour",
      "address3": null,
      "postCode": "JE2 7LD",
      "latitude": 49.190451,
      "longitude": -2.100316
    },
    {
      "name": "Longfield Villa Care Home",
      "rating": 5,
      "createdAt": "04/06/2024",
      "address1": "La Rue du Bocage",
      "address2": "St. Peter",
      "address3": null,
      "postCode": "JE3 7AS",
      "latitude": 49.21283,
      "longitude": -2.18372
    },
    {
      "name": "Springfield Primary School",
      "rating": 5,
      "createdAt": "24/01/2025",
      "address1": "St. Marks Road",
      "address2": "St. Saviour",
      "address3": null,
      "postCode": "JE2 7LD",
      "latitude": 49.190451,
      "longitude": -2.100316
    },
    {
      "name": "Grainville Tennis Club",
      "rating": 5,
      "createdAt": "22/02/2023",
      "address1": null,
      "address2": null,
      "address3": null,
      "postCode": null,
      "latitude": null,
      "longitude": null
    },
    {
      "name": "Eastern Good Companions Club",
      "rating": 5,
      "createdAt": "30/04/2025",
      "address1": "Rue du Maupertuis",
      "address2": "St. Clement",
      "address3": null,
      "postCode": "JE2 6NG",
      "latitude": 49.168064,
      "longitude": -2.081943
    },
    {
      "name": "St. Saviours Bowling Club",
      "rating": 5,
      "createdAt": "20/06/2022",
      "address1": "St. Saviours Hill",
      "address2": "St. Saviour",
      "address3": null,
      "postCode": "JE2 7LG",
      "latitude": 49.194944,
      "longitude": -2.090842
    },
    {
      "name": "Shelter Trust (Evans House)",
      "rating": 4,
      "createdAt": "13/10/2023",
      "address1": "Roseneath",
      "address2": "6-7 Springfield Crescent",
      "address3": "Jersey",
      "postCode": "JE2 4GL",
      "latitude": 40.701952,
      "longitude": -74.320072
    },
    {
      "name": "Bowlers Rest",
      "rating": 5,
      "createdAt": "06/05/2025",
      "address1": "Jersey Indoor Bowling",
      "address2": "St. Saviours Hill",
      "address3": "Jersey",
      "postCode": "JE2 7XB",
      "latitude": 49.194897,
      "longitude": -2.090318
    },
    {
      "name": "The Admiral",
      "rating": 5,
      "createdAt": "26/07/2022",
      "address1": "12-14 St. James Street",
      "address2": "St. Helier",
      "address3": null,
      "postCode": "JE2 3QZ",
      "latitude": 49.185665,
      "longitude": -2.110228
    },
    {
      "name": "Big J Take Away",
      "rating": 3,
      "createdAt": "24/01/2024",
      "address1": "30 Sand Street",
      "address2": "St. Helier",
      "address3": null,
      "postCode": "JE2 3QF",
      "latitude": 49.18576,
      "longitude": -2.1112
    },
    {
      "name": "FCJ Primary School",
      "rating": 5,
      "createdAt": "30/10/2023",
      "address1": "F C J School",
      "address2": "La Rue de Deloraine",
      "address3": "Jersey",
      "postCode": "JE2 7XB",
      "latitude": 39.119433,
      "longitude": -90.327488
    },
    {
      "name": "James St Newsagents",
      "rating": 3,
      "createdAt": "26/11/2024",
      "address1": "4 St. James Street",
      "address2": "St. Helier",
      "address3": null,
      "postCode": "JE2 3QZ",
      "latitude": 49.18375,
      "longitude": -2.10011
    },
    {
      "name": "The Wellington Inn",
      "rating": 5,
      "createdAt": "09/09/2022",
      "address1": "104  St. Saviours Road",
      "address2": null,
      "address3": "St. Helier",
      "postCode": "JE2 4BA",
      "latitude": 49.18899,
      "longitude": -2.09705
    },
    {
      "name": "Le Squez Youth Project",
      "rating": 4,
      "createdAt": "11/01/2024",
      "address1": "School Road",
      "address2": "St. Clement",
      "address3": null,
      "postCode": "JE2 6TG",
      "latitude": 49.169796,
      "longitude": -2.084149
    },
    {
      "name": "Jack and Diana's Food Stall",
      "rating": 3,
      "createdAt": "10/06/2023",
      "address1": null,
      "address2": null,
      "address3": null,
      "postCode": null,
      "latitude": null,
      "longitude": null
    },
    {
      "name": "Laneez Surf Centre",
      "rating": 5,
      "createdAt": "05/06/2023",
      "address1": "The Surf Shack",
      "address2": "La Grande Route Des Mielles",
      "address3": "Jersey",
      "postCode": "JE3 7FN",
      "latitude": 49.214849,
      "longitude": -2.224828
    },
    {
      "name": "Rosedale Stores",
      "rating": 4,
      "createdAt": "31/10/2023",
      "address1": "Gorey Village Main Road",
      "address2": "Grouville",
      "address3": null,
      "postCode": "JE3 9FX",
      "latitude": 49.195959,
      "longitude": -2.03384
    },
    {
      "name": "Westhill Country Club Limited T/a Westhill Country Hotel",
      "rating": 3,
      "createdAt": "24/07/2025",
      "address1": "Westhill Country Hotel",
      "address2": "West Hill",
      "address3": "St. Helier",
      "postCode": "JE2 3HB",
      "latitude": 49.198583,
      "longitude": -2.119622
    },
    {
      "name": "The Sir George Carteret",
      "rating": 4,
      "createdAt": "28/06/2024",
      "address1": "Public House",
      "address2": "La Petite Rue de l'Église",
      "address3": "Jersey",
      "postCode": "JE3 7AF",
      "latitude": 49.213038,
      "longitude": -2.18341
    },
    {
      "name": "Co-Op Locale - Quennevais",
      "rating": 5,
      "createdAt": "18/04/2025",
      "address1": "La Route des Quennevais",
      "address2": "St. Brelade",
      "address3": null,
      "postCode": "JE3 8LL",
      "latitude": 49.193048,
      "longitude": -2.199306
    },
    {
      "name": "The Thai Dicq Shack",
      "rating": 3,
      "createdAt": "15/09/2022",
      "address1": "The Dicq Slip",
      "address2": "St Clements Road",
      "address3": "Jersey",
      "postCode": "JE2 7PD",
      "latitude": 39.119433,
      "longitude": -90.327488
    },
    {
      "name": "Westmount Day Nursery",
      "rating": 5,
      "createdAt": "29/07/2024",
      "address1": "Westmount Road",
      "address2": "St. Helier",
      "address3": null,
      "postCode": "JE2 3LP",
      "latitude": 49.19155,
      "longitude": -2.116394
    },
    {
      "name": "Tori's Treasures",
      "rating": 5,
      "createdAt": "03/07/2025",
      "address1": null,
      "address2": null,
      "address3": null,
      "postCode": null,
      "latitude": null,
      "longitude": null
    },
    {
      "name": "New Rainbow",
      "rating": 4,
      "createdAt": "20/10/2022",
      "address1": "Rainbow Chinese Takeaway",
      "address2": "16 Belmont Road",
      "address3": "Jersey",
      "postCode": "JE2 4SA",
      "latitude": 39.214102,
      "longitude": -74.950234
    },
    {
      "name": "Jersey Bowling Club",
      "rating": 5,
      "createdAt": "24/02/2023",
      "address1": "Westmount Road",
      "address2": "St. Helier",
      "address3": null,
      "postCode": "JE2 3LP",
      "latitude": 49.19155,
      "longitude": -2.116394
    },
    {
      "name": "Bistro Rosa",
      "rating": 4,
      "createdAt": "29/04/2025",
      "address1": "19-22 Beresford Market",
      "address2": "Beresford Street",
      "address3": "Jersey",
      "postCode": "JE2 4WX",
      "latitude": 39.119433,
      "longitude": -90.327488
    },
    {
      "name": "The Kids Club",
      "rating": 4,
      "createdAt": "03/03/2023",
      "address1": "St. Mary Youth & Community Centre",
      "address2": "La Rue du Pont",
      "address3": "Jersey",
      "postCode": "JE3 3AS",
      "latitude": 49.167499,
      "longitude": -2.033118
    },
    {
      "name": "Restaurant Do Porto",
      "rating": 3,
      "createdAt": "28/07/2022",
      "address1": "Restaurant Do Porto",
      "address2": "2-3 Minden Street",
      "address3": "Jersey",
      "postCode": "JE2 4WR",
      "latitude": 43.865135,
      "longitude": -85.37849
    },
    {
      "name": "La Baguette Chaude (Bruno's)",
      "rating": 4,
      "createdAt": "30/06/2025",
      "address1": "La Baguette Chaude",
      "address2": "5 York Street",
      "address3": "Jersey",
      "postCode": "JE2 3RQ",
      "latitude": 43.865135,
      "longitude": -85.37849
    },
    {
      "name": "La Taverne Restaurant",
      "rating": 4,
      "createdAt": "25/09/2023",
      "address1": "La Taverne Restaurant",
      "address2": "6 York Street",
      "address3": "Jersey",
      "postCode": "JE2 3RQ",
      "latitude": 39.119433,
      "longitude": -90.327488
    },