{
  "results": [
    {
      "id": "001bcd85-b0ed-4c01-91f6-71360e10c4eb",
      "name": "Rue des Vignes E",
      "stopNumber": "4362",
      "latitude": 49.20619345,
      "longitude": -2.17884485,
      "shelter": false
    },
    {
      "id": "00532836-2b53-4f3e-a4a6-d39e8fc2e0e5",
      "name": "Five Roads",
      "stopNumber": "2637",
      "latitude": 49.24036579,
      "longitude": -2.21945777,
      "shelter": false
    },
    {
      "id": "007d9e16-d569-41f6-8e73-a7c2d0af9b7e",
      "name": "Hollydale Estate S",
      "stopNumber": "3457",
      "latitude": 49.20407584,
      "longitude": -2.14013649,
      "shelter": false
    },
    {
      "id": "00d2d07f-1f50-4836-acad-76a7fd6ceb87",
      "name": "Highfield Lane N",
      "stopNumber": "2762",
      "latitude": 49.20421998,
      "longitude": -2.08537087,
      "shelter": false
    },
    {
      "id": "010b54f6-b912-41db-b8fc-e328619ca563",
      "name": "Jardin de Devant",
      "stopNumber": "2923",
      "latitude": 49.17622945,
      "longitude": -2.04169382,
      "shelter": false
    },
    {
      "id": "0110d051-2a6b-4568-8200-f818167e9c06",
      "name": "Havre des Pas E",
      "stopNumber": "3496",
      "latitude": 49.177437,
      "longitude": -2.09859688,
      "shelter": false
    },
    {
      "id": "012aff83-82cc-49e0-927e-b8cdef800700",
      "name": "Beaulieu School",
      "stopNumber": "2376",
      "latitude": 49.18930487,
      "longitude": -2.09561,
      "shelter": false
    },
    {
      "id": "02104e61-8704-4d3d-9a3f-4aeb2c655af9",
      "name": "Bagatelle Lane S",
      "stopNumber": "2498",
      "latitude": 49.18892618,
      "longitude": -2.08944029,
      "shelter": true
    },
    {
      "id": "02d56b05-6b19-4e26-bbb7-78e0692da6d4",
      "name": "Clos des Champs N",
      "stopNumber": "2967",
      "latitude": 49.21526725,
      "longitude": -2.06620168,
      "shelter": false
    },
    {
      "id": "0317cd13-1b64-4181-abca-b4624c010f8c",
      "name": "The Windmill W",
      "stopNumber": "2483",
      "latitude": 49.23337349,
      "longitude": -2.18311288,
      "shelter": false
    },
    {
      "id": "036c1e4a-a427-4213-b563-8eb55cb6f851",
      "name": "Clos Bertram N",
      "stopNumber": "2437",
      "latitude": 49.17660087,
      "longitude": -2.03259826,
      "shelter": false
    },
    {
      "id": "03a6d359-54ec-456b-8cd9-a0668c158f98",
      "name": "Samares Manor W",
      "stopNumber": "3765",
      "latitude": 49.17341195,
      "longitude": -2.07912291,
      "shelter": false
    },
    {
      "id": "04c60c75-83bc-4140-8083-a39e4955a42b",
      "name": "La Hougue Farm",
      "stopNumber": "2862",
      "latitude": 49.24891185,
      "longitude": -2.22201384,
      "shelter": false
    },
    {
      "id": "04dbeec9-a486-4328-b5f9-8291ebb8ed88",
      "name": "Cinq Chenes Estate E",
      "stopNumber": "4326",
      "latitude": 49.1978599,
      "longitude": -2.08003581,
      "shelter": false
    },
    {
      "id": "051600b5-fd41-40f9-9c1e-e63f7c13c289",
      "name": "Pres d'Auvergne",
      "stopNumber": "2975",
      "latitude": 49.23542193,
      "longitude": -2.22914596,
      "shelter": false
    },
    {
      "id": "0521e7b2-ab78-4cdc-8424-1f8380368412",
      "name": "Clos de Corvez",
      "stopNumber": "3756",
      "latitude": 49.17373911,
      "longitude": -2.05485219,
      "shelter": true
    },
    {
      "id": "05b10bed-06e1-42ed-8f0d-581ab53f2500",
      "name": "Tabor Park E",
      "stopNumber": "3858",
      "latitude": 49.18898848,
      "longitude": -2.19330138,
      "shelter": true
    },
    {
      "id": "05bec26d-83e9-4614-b952-4a417f509755",
      "name": "Plat Douet School",
      "stopNumber": "3545",
      "latitude": 49.17936562,
      "longitude": -2.08786493,
      "shelter": false
    },
    {
      "id": "063fbb13-0a10-409e-96ff-24056cf8b3d8",
      "name": "La Mare des Pres N",
      "stopNumber": "4394",
      "latitude": 49.2464274,
      "longitude": -2.11180154,
      "shelter": false
    },
    {
      "id": "066ebe14-1330-473f-b0a5-b34e480b435c",
      "name": "Clos de la Rocque",
      "stopNumber": "2526",
      "latitude": 49.16594065,
      "longitude": -2.0365913,
      "shelter": false
    },
    {
      "id": "06ac05e7-f57e-4d9e-b01d-d30a0ee7701d",
      "name": "Bus Station Stand I",
      "stopNumber": "4534",
      "latitude": 49.18326676,
      "longitude": -2.10976097,
      "shelter": false
    },
    {
      "id": "06d2db87-2004-4b9f-9b6b-ca4a0d7bb92b",
      "name": "Sion Village N",
      "stopNumber": "3725",
      "latitude": 49.21989034,
      "longitude": -2.11449716,
      "shelter": false
    },
    {
      "id": "06ebeec6-4087-4eef-8e55-3cec74b891e3",
      "name": "La Fosse N",
      "stopNumber": "3687",
      "latitude": 49.23227915,
      "longitude": -2.04328466,
      "shelter": false
    },
    {
      "id": "0770043d-cae5-4217-ac48-f9adf492feb8",
      "name": "Rue d'Olive S",
      "stopNumber": "3659",
      "latitude": 49.24530601,
      "longitude": -2.16590153,
      "shelter": false
    },
    {
      "id": "079db26a-75da-410a-bca5-1de53d601089",
      "name": "Rue Baal",
      "stopNumber": "3578",
      "latitude": 49.18131106,
      "longitude": -2.22058487,
      "shelter": false
    },
    {
      "id": "07bb419b-68d3-4cae-97c0-892ba3cbf921",
      "name": "Atlantic Hotel W",
      "stopNumber": "4246",
      "latitude": 49.1871152,
      "longitude": -2.22593369,
      "shelter": false
    },
    {
      "id": "07bd4c98-3bb7-4a27-b90f-aa398a5b6964",
      "name": "Rue de Bechet N",
      "stopNumber": "2382",
      "latitude": 49.22476682,
      "longitude": -2.11374756,
      "shelter": false
    },
    {
      "id": "07c4a946-995a-44e7-9fbd-1a1b9d09c318",
      "name": "St Ouens Pond N",
      "stopNumber": "2398",
      "latitude": 49.21505004,
      "longitude": -2.22491279,
      "shelter": false
    },
    {
      "id": "07f5df9e-32a8-4cce-80b7-32bfd4e7f83f",
      "name": "Rue de Bechet S",
      "stopNumber": "3638",
      "latitude": 49.22497469,
      "longitude": -2.11377414,
      "shelter": false
    },
    {
      "id": "0860040a-330e-4155-8e91-bf134d4e9bd8",
      "name": "Le Rondin",
      "stopNumber": "4258",
      "latitude": 49.23910783,
      "longitude": -2.18076984,
      "shelter": false
    },
    {
      "id": "086b6901-8dda-42ac-b188-f2b09920a77c",
      "name": "Chateau des Reves N",
      "stopNumber": "2492",
      "latitude": 49.21051246,
      "longitude": -2.03678075,
      "shelter": false
    },
    {
      "id": "0877e7a5-4a53-4ccb-b816-8e5b44748c9e",
      "name": "St Aubin S",
      "stopNumber": "3743",
      "latitude": 49.18779888,
      "longitude": -2.17005371,
      "shelter": true
    },
    {
      "id": "088aaf85-e9ef-41f5-8fe5-b8a37c2e19f1",
      "name": "Pontac Common E",
      "stopNumber": "3565",
      "latitude": 49.1694615,
      "longitude": -2.04743715,
      "shelter": false
    },
    {
      "id": "08a3d7c9-3355-427b-b8bf-537d23eded49",
      "name": "Ville des Marettes",
      "stopNumber": "3967",
      "latitude": 49.23373236,
      "longitude": -2.19845861,
      "shelter": false
    },
    {
      "id": "08de93b5-dd37-436d-b121-d088cc59ad39",
      "name": "Colomberie Parade",
      "stopNumber": "2525",
      "latitude": 49.18158673,
      "longitude": -2.09975414,
      "shelter": false
    },
    {
      "id": "0905d657-fa73-43f8-a7a7-ead17eafbaa8",
      "name": "Le Douet",
      "stopNumber": "4632",
      "latitude": 49.24097291,
      "longitude": -2.20491093,
      "shelter": false
    },
    {
      "id": "09752bb6-9328-45d7-8961-df10e106d1e1",
      "name": "Spectrum",
      "stopNumber": "2598",
      "latitude": 49.18717114,
      "longitude": -2.11169379,
      "shelter": false
    },
    {
      "id": "09cd6d9e-4ad5-42d5-9430-6ccd96ec9ee3",
      "name": "St Ouen Garage S",
      "stopNumber": "2878",
      "latitude": 49.22971535,
      "longitude": -2.2001232,
      "shelter": false
    },
    {
      "id": "0a2f5ed4-8aad-4299-9804-7b694edc8e67",
      "name": "St Martins Arsenal N",
      "stopNumber": "3782",
      "latitude": 49.22797668,
      "longitude": -2.06928989,
      "shelter": false
    },
    {
      "id": "0a4b6517-9251-4e3f-9144-a49e28d80169",
      "name": "Ransoms S",
      "stopNumber": "2648",
      "latitude": 49.20550071,
      "longitude": -2.03236404,
      "shelter": false
    },
    {
      "id": "0a92ee4b-de0b-457f-91e0-a08320e045fe",
      "name": "La Nouvelle Croix E",
      "stopNumber": "4562",
      "latitude": 49.23674373,
      "longitude": -2.09319544,
      "shelter": false
    },
    {
      "id": "0b44bc19-6355-4d85-a972-27e108d49d83",
      "name": "Bagot Manor Avenue E",
      "stopNumber": "2535",
      "latitude": 49.18100801,
      "longitude": -2.0879461,
      "shelter": false
    },
    {
      "id": "0b67ef10-f86a-4480-a7a8-187e13e7aff4",
      "name": "La Longue Rue W",
      "stopNumber": "3785",
      "latitude": 49.2157165,
      "longitude": -2.04445017,
      "shelter": false
    },
    {
      "id": "0c780a35-59bb-44b1-8a90-53477dc5c37d",
      "name": "Broadfields N",
      "stopNumber": "2823",
      "latitude": 49.23110901,
      "longitude": -2.15483855,
      "shelter": false
    },
    {
      "id": "0cf2a8d6-bd7a-4035-adfb-47cfa0c99aff",
      "name": "Cinq Chenes Estate W",
      "stopNumber": "4325",
      "latitude": 49.19755274,
      "longitude": -2.07819573,
      "shelter": false
    },
    {
      "id": "0d544584-fedf-49b1-9027-0d2f36f3ea0a",
      "name": "Mont Mado E",
      "stopNumber": "3459",
      "latitude": 49.24543318,
      "longitude": -2.12506885,
      "shelter": false
    },
    {
      "id": "0d567028-a0ca-43f4-b343-93c56bda6bb0",
      "name": "Chestnut Farm",
      "stopNumber": "2495",
      "latitude": 49.19836088,
      "longitude": -2.11335437,
      "shelter": false
    },
    {
      "id": "0d5e498d-a6e4-4cd6-bd06-70f047d08b14",
      "name": "Le Hocq Slipway W",
      "stopNumber": "2953",
      "latitude": 49.16719155,
      "longitude": -2.06167182,
      "shelter": true
    },
    {
      "id": "0d60a1f9-0017-4bd2-8ff6-0efcd13e8ea8",
      "name": "Les Charrieres S",
      "stopNumber": "2987",
      "latitude": 49.22396442,
      "longitude": -2.18188688,
      "shelter": false
    },
    {
      "id": "0d812d7e-8791-468a-88c3-4035021fb7d8",
      "name": "Pontac Slipway W",
      "stopNumber": "3564",
      "latitude": 49.16932794,
      "longitude": -2.05578237,
      "shelter": true
    },
    {
      "id": "0d866fe7-fe9c-431a-b6b2-f4b6b14456a6",
      "name": "Rue des Arbres",
      "stopNumber": "2537",
      "latitude": 49.21106192,
      "longitude": -2.1128477,
      "shelter": false
    },
    {
      "id": "0de4c9a4-ec0b-4353-b204-d1d14866e181",
      "name": "Clos Le Troquer W",
      "stopNumber": "4638",
      "latitude": 49.21697128,
      "longitude": -2.04707867,
      "shelter": true
    },
    {
      "id": "0e3d4247-bedf-4c21-be0a-7727ec34352a",
      "name": "Grasett Park W",
      "stopNumber": "3473",
      "latitude": 49.17726263,
      "longitude": -2.08933743,
      "shelter": false
    },
    {
      "id": "0e4bbd00-e537-4dd6-8370-b13483d227ac",
      "name": "Grenville Court S",
      "stopNumber": "3924",
      "latitude": 49.1681214,
      "longitude": -2.02904057,
      "shelter": false
    },
    {
      "id": "0e54ca52-2119-47bb-8e0e-143654cb5c18",
      "name": "Marett Road W",
      "stopNumber": "2642",
      "latitude": 49.17701857,
      "longitude": -2.10194045,
      "shelter": true
    },
    {
      "id": "0e5f0532-44b0-4032-99a7-6e3e2fae589a",
      "name": "Quennevais Drive E",
      "stopNumber": "3582",
      "latitude": 49.18904277,
      "longitude": -2.20966699,
      "shelter": false
    },
    {
      "id": "0ea2c834-56bd-42b2-8baf-569f0553b399",
      "name": "Mont Fallu N",
      "stopNumber": "2849",
      "latitude": 49.2086484,
      "longitude": -2.17565153,
      "shelter": true
    },
    {
      "id": "0ea9c6b6-0363-4bb0-ae93-508b0e3c4135",
      "name": "L'Horizon Hotel E",
      "stopNumber": "3248",
      "latitude": 49.18499916,
      "longitude": -2.19338102,
      "shelter": true
    },
    {
      "id": "0ec328f3-f14a-4087-a4f8-c3852308809e",
      "name": "St Peters Arsenal S",
      "stopNumber": "3438",
      "latitude": 49.20168695,
      "longitude": -2.18024409,
      "shelter": false
    },
    {
      "id": "0f25a3f6-5e5f-4797-949f-2ae29195f651",
      "name": "Mont Cantel",
      "stopNumber": "3276",
      "latitude": 49.19412173,
      "longitude": -2.10432811,
      "shelter": false
    },
    {
      "id": "0f2602ec-16cd-48aa-aa37-886651cbb49c",
      "name": "Victoria Village",
      "stopNumber": "3962",
      "latitude": 49.21648493,
      "longitude": -2.08152917,
      "shelter": false
    },
    {
      "id": "0f50748b-d48b-4b93-a43a-9428e64d9bc6",
      "name": "La Grange S",
      "stopNumber": "3749",
      "latitude": 49.212883,
      "longitude": -2.09712297,
      "shelter": false
    },
    {
      "id": "0f6b051d-6460-44a2-b715-58f9f53dfd17",
      "name": "Hougue des Platons W",
      "stopNumber": "4272",
      "latitude": 49.24568784,
      "longitude": -2.10153365,
      "shelter": false
    },
    {
      "id": "0f9d41f6-2f0c-408b-89de-a602a14bbad1",
      "name": "Le Relais N",
      "stopNumber": "4594",
      "latitude": 49.24057332,
      "longitude": -2.24394471,
      "shelter": false
    },
    {
      "id": "0fa14641-f935-4af7-9bc4-bda1a9efead1",
      "name": "La Piece Mauger N",
      "stopNumber": "2848",
      "latitude": 49.2246619,
      "longitude": -2.06810707,
      "shelter": false
    },
    {
      "id": "0fc45d52-a503-4462-bafa-e1ba88a88a45",
      "name": "Aubin Lane",
      "stopNumber": "2363",
      "latitude": 49.17954099,
      "longitude": -2.09052237,
      "shelter": false
    },
    {
      "id": "0fc5d506-08d4-4322-88b6-a38d6934d5a8",
      "name": "Devonshire Place",
      "stopNumber": "4656",
      "latitude": 49.18705865,
      "longitude": -2.10835294,
      "shelter": false
    },
    {
      "id": "0fd19938-7322-42e1-b042-24f863f6ecbc",
      "name": "Grenville Court N",
      "stopNumber": "2732",
      "latitude": 49.16837171,
      "longitude": -2.02918751,
      "shelter": false
    },
    {
      "id": "0fe1a1bf-20ba-4fc4-8779-80507146af95",
      "name": "Gorey Common N",
      "stopNumber": "2686",
      "latitude": 49.19386286,
      "longitude": -2.03498921,
      "shelter": false
    },
    {
      "id": "0fe942fc-62e0-43b2-9167-746be3817d25",
      "name": "Deloraine Road",
      "stopNumber": "2695",
      "latitude": 49.20279965,
      "longitude": -2.09008569,
      "shelter": false
    },
    {
      "id": "104196fd-b1e5-4bcd-bcc8-433fbf1fb176",
      "name": "Travers Farm Lane N",
      "stopNumber": "3573",
      "latitude": 49.17994142,
      "longitude": -2.17551575,
      "shelter": false
    },
    {
      "id": "10823948-3217-4fe1-a7a4-b967cc42d9a8",
      "name": "Seymour Inn S",
      "stopNumber": "3696",
      "latitude": 49.16949809,
      "longitude": -2.02982559,
      "shelter": true
    },
    {
      "id": "10a9d459-d031-4598-9901-60d82db2f314",
      "name": "La Maitrerie Farm W",
      "stopNumber": "4627",
      "latitude": 49.22217327,
      "longitude": -2.06269028,
      "shelter": false
    },
    {
      "id": "10fbdd7d-e868-4c37-849b-e9db4ac62ad2",
      "name": "El Tico N",
      "stopNumber": "3258",
      "latitude": 49.20542395,
      "longitude": -2.22210341,
      "shelter": false
    },
    {
      "id": "110b84a4-f88a-4a30-9b8c-439b44d67a6b",
      "name": "Belval N",
      "stopNumber": "3428",
      "latitude": 49.22197596,
      "longitude": -2.02629594,
      "shelter": false
    },
    {
      "id": "11e321ff-54af-48d2-a655-c28963f374e0",
      "name": "St Peters Village S",
      "stopNumber": "3835",
      "latitude": 49.21309429,
      "longitude": -2.18237911,
      "shelter": true
    },
    {
      "id": "133e291f-7ff6-481c-9b3d-89ca4ea28be0",
      "name": "Mont des Landes S",
      "stopNumber": "4637",
      "latitude": 49.21215983,
      "longitude": -2.02703125,
      "shelter": false
    },
    {
      "id": "134618a4-aac9-4ab8-a51c-de06793fa438",
      "name": "Mont des Landes N",
      "stopNumber": "4636",
      "latitude": 49.21229385,
      "longitude": -2.02726257,
      "shelter": false
    },
    {
      "id": "1359ffa1-05ab-455c-bad2-a415113c6be5",
      "name": "Jubilee Homes",
      "stopNumber": "3879",
      "latitude": 49.21483908,
      "longitude": -2.18347206,
      "shelter": true
    },
    {
      "id": "13d30ceb-49a0-40f3-b8b3-059e3faf930d",
      "name": "Causie Lane W",
      "stopNumber": "2485",
      "latitude": 49.17326081,
      "longitude": -2.04944736,
      "shelter": false
    },
    {
      "id": "1413b418-5eac-4ed0-9ab3-076b40b4dfbd",
      "name": "Rue des Niemes",
      "stopNumber": "3528",
      "latitude": 49.21956245,
      "longitude": -2.18839157,
      "shelter": false
    },
    {
      "id": "14235dcd-5d4e-41d7-a2d3-0e29dfaf24c9",
      "name": "Le Catillon E",
      "stopNumber": "3923",
      "latitude": 49.20059454,
      "longitude": -2.05896445,
      "shelter": false
    },
    {
      "id": "142cd079-8082-4e86-9f81-11462a2d6cfa",
      "name": "Castle Quay S",
      "stopNumber": "4649",
      "latitude": 49.18269536,
      "longitude": -2.11466105,
      "shelter": false
    },
    {
      "id": "14673cf9-527b-4d9c-b61a-f6be2d8b46f0",
      "name": "Maison d'Azette",
      "stopNumber": "3273",
      "latitude": 49.16989966,
      "longitude": -2.08422012,
      "shelter": false
    },
    {
      "id": "147a41d7-ac5f-441f-afb6-d1585165a22a",
      "name": "St Peters House S",
      "stopNumber": "3834",
      "latitude": 49.22111692,
      "longitude": -2.18281113,
      "shelter": false
    },
    {
      "id": "15012a17-cfe1-4b0e-9a6a-3d0b91585430",
      "name": "Six Roads E",
      "stopNumber": "3728",
      "latitude": 49.22746944,
      "longitude": -2.14969885,
      "shelter": false
    },
    {
      "id": "152d824c-aaff-479f-adf9-cb83d3b2b67d",
      "name": "La Croix N",
      "stopNumber": "3526",
      "latitude": 49.23528047,
      "longitude": -2.20381783,
      "shelter": false
    },
    {
      "id": "154b3edd-90ae-4604-a0f1-970602f39065",
      "name": "Jeffreys Leap W",
      "stopNumber": "4254",
      "latitude": 49.20342998,
      "longitude": -2.02064699,
      "shelter": false
    },
    {
      "id": "158a43ba-726b-4d50-a830-2daffbd6d81f",
      "name": "Bagot Manor Avenue W",
      "stopNumber": "2364",
      "latitude": 49.18118078,
      "longitude": -2.08742501,
      "shelter": false
    },
    {
      "id": "15efc603-c16b-4540-84f0-d0b79fbb80ed",
      "name": "Rue de Belin S",
      "stopNumber": "3786",
      "latitude": 49.22035282,
      "longitude": -2.04840775,
      "shelter": false
    },
    {
      "id": "1668b3ee-2f03-408f-9851-ed56a4f4e0cd",
      "name": "Langford",
      "stopNumber": "3957",
      "latitude": 49.18596954,
      "longitude": -2.09517037,
      "shelter": true
    },
    {
      "id": "167374a1-db9b-4ce4-842d-87917e161510",
      "name": "Havre des Pas W",
      "stopNumber": "3724",
      "latitude": 49.17741358,
      "longitude": -2.09810192,
      "shelter": false
    },
    {
      "id": "16a629ec-d079-4afc-9529-267efbc27c82",
      "name": "Cloverley Court S",
      "stopNumber": "2934",
      "latitude": 49.20810312,
      "longitude": -2.03383865,
      "shelter": false
    },
    {
      "id": "16b39a2f-a1ce-48ec-a86b-6f79346ce8ba",
      "name": "La Chasse W",
      "stopNumber": "2843",
      "latitude": 49.2336108,
      "longitude": -2.19499924,
      "shelter": false
    },
    {
      "id": "16bc708d-703b-4cbb-ac19-8fe5819ed96a",
      "name": "Miladi Farm Parade E",
      "stopNumber": "2572",
      "latitude": 49.18322712,
      "longitude": -2.08151341,
      "shelter": false
    },
    {
      "id": "17545da3-372e-408b-ac60-9896f9bd9d0c",
      "name": "Bonne Nuit Bay E",
      "stopNumber": "2434",
      "latitude": 49.25067628,
      "longitude": -2.12105874,
      "shelter": false
    },
    {
      "id": "180af5f5-0f91-429f-96d1-f071a645f30a",
      "name": "Hautes Croix Store S",
      "stopNumber": "2468",
      "latitude": 49.23857743,
      "longitude": -2.11144612,
      "shelter": false
    },
    {
      "id": "1887d421-39c3-4599-9bab-8ac1bbe80411",
      "name": "Corbiere",
      "stopNumber": "2545",
      "latitude": 49.18144015,
      "longitude": -2.23824892,
      "shelter": true
    },
    {
      "id": "18a4ed44-56c5-408f-998f-77274c5e2224",
      "name": "Sunnyfields Farm",
      "stopNumber": "3269",
      "latitude": 49.21457183,
      "longitude": -2.18343171,
      "shelter": false
    },
    {
      "id": "18a5a5a0-89f4-40e5-8968-0fff4a32765e",
      "name": "Verona Stores N",
      "stopNumber": "3952",
      "latitude": 49.1829775,
      "longitude": -2.03794995,
      "shelter": false
    },
    {
      "id": "18b9066c-5a95-4974-a0d6-0fcfb20437eb",
      "name": "Dessous Les Hougues",
      "stopNumber": "3926",
      "latitude": 49.23544464,
      "longitude": -2.22901088,
      "shelter": false
    },
    {
      "id": "18ea271d-9c58-4f99-ad7d-f2aa67f36b5c",
      "name": "Rue au Blancq W",
      "stopNumber": "3898",
      "latitude": 49.1717405,
      "longitude": -2.07099607,
      "shelter": false
    },
    {
      "id": "1945a495-e7bd-4a8f-b4c3-8f2ffdfb11a5",
      "name": "The Powerhouse N",
      "stopNumber": "2359",
      "latitude": 49.19999237,
      "longitude": -2.11329449,
      "shelter": false
    },
    {
      "id": "195bedb1-e362-480e-ae8e-460f0b2f4002",
      "name": "Rue de la Commune",
      "stopNumber": "4596",
      "latitude": 49.19937022,
      "longitude": -2.06782148,
      "shelter": false
    },
    {
      "id": "19ab2bbe-0b2f-4011-874e-5d9c8066285e",
      "name": "Poplar Avenue N",
      "stopNumber": "3568",
      "latitude": 49.2106299,
      "longitude": -2.06114307,
      "shelter": false
    },
    {
      "id": "19d7280e-575e-4f10-a969-ab984e8ed3fe",
      "name": "Sydney Crill Park W",
      "stopNumber": "2428",
      "latitude": 49.16975152,
      "longitude": -2.05280761,
      "shelter": false
    },
    {
      "id": "19e7b26a-fe1d-4b00-aa5f-a42c7dffd113",
      "name": "Royal Hotel S",
      "stopNumber": "4674",
      "latitude": 49.18867751,
      "longitude": -2.10288076,
      "shelter": false
    },
    {
      "id": "19fedc85-3cfd-4074-bc8f-28d0588a0623",
      "name": "La Providence W",
      "stopNumber": "4282",
      "latitude": 49.20102224,
      "longitude": -2.15273332,
      "shelter": true
    },
    {
      "id": "1aa1870e-64c4-4691-bab6-2d7a74d30106",
      "name": "Route du Francfief N",
      "stopNumber": "2853",
      "latitude": 49.19923888,
      "longitude": -2.17892677,
      "shelter": false
    },
    {
      "id": "1b6258aa-a8d5-405e-982c-7dc8969b286c",
      "name": "Clos St Andre N",
      "stopNumber": "4585",
      "latitude": 49.19615273,
      "longitude": -2.12491449,
      "shelter": false
    },
    {
      "id": "1c3d277a-6121-4922-b9e0-a8984f31abc0",
      "name": "Surville Cemetery S",
      "stopNumber": "2383",
      "latitude": 49.21492198,
      "longitude": -2.11333836,
      "shelter": true
    },
    {
      "id": "1d7b69be-b939-4342-866b-f13630909dbb",
      "name": "Beach Road E",
      "stopNumber": "3482",
      "latitude": 49.17706849,
      "longitude": -2.09642102,
      "shelter": false
    },
    {
      "id": "1d862619-cac6-40f7-88ce-92fe11cbc3a6",
      "name": "Maufant Village S",
      "stopNumber": "3295",
      "latitude": 49.20937282,
      "longitude": -2.0630935,
      "shelter": false
    },
    {
      "id": "1ec69f1c-e6da-4bf6-a9b7-4d022b092894",
      "name": "St Martins Arsenal S",
      "stopNumber": "3986",
      "latitude": 49.2277417,
      "longitude": -2.06919606,
      "shelter": false
    },
    {
      "id": "1ed0442e-3c5c-4bea-a1ff-033bfcc76f34",
      "name": "Albert Road E",
      "stopNumber": "2658",
      "latitude": 49.17814888,
      "longitude": -2.09085598,
      "shelter": false
    },
    {
      "id": "1f83cca2-0172-4454-9800-1b6fcabd2448",
      "name": "Gargate N",
      "stopNumber": "2649",
      "latitude": 49.21458397,
      "longitude": -2.17101403,
      "shelter": false
    },
    {
      "id": "20a86807-22d2-46c4-869c-59ccd621c2a6",
      "name": "Les Croix S",
      "stopNumber": "2973",
      "latitude": 49.23697435,
      "longitude": -2.09366096,
      "shelter": false
    },
    {
      "id": "21af60ae-9650-4bd0-8473-b3ad027437c5",
      "name": "Eden Chapel",
      "stopNumber": "2583",
      "latitude": 49.20467691,
      "longitude": -2.07117195,
      "shelter": false
    },
    {
      "id": "22c98edc-eae0-4fd4-a701-aec5e693fc0a",
      "name": "Samares School",
      "stopNumber": "3686",
      "latitude": 49.17084744,
      "longitude": -2.08238253,
      "shelter": true
    },
    {
      "id": "23086766-228b-4eda-aada-ae9e47da729a",
      "name": "West Hill",
      "stopNumber": "3975",
      "latitude": 49.20053814,
      "longitude": -2.11562257,
      "shelter": false
    },
    {
      "id": "233cb7a6-6a9a-405e-8949-1d7d58c13794",
      "name": "Red Houses Shops N",
      "stopNumber": "3596",
      "latitude": 49.19164669,
      "longitude": -2.19992099,
      "shelter": true
    },
    {
      "id": "233f26a4-ed31-46a9-a8f3-aa6a42017109",
      "name": "La Maison Slipway N",
      "stopNumber": "3257",
      "latitude": 49.21839786,
      "longitude": -2.03004114,
      "shelter": false
    },
    {
      "id": "23510373-b452-48b8-8cad-2a7e22058efb",
      "name": "St Catherine",
      "stopNumber": "3752",
      "latitude": 49.22414891,
      "longitude": -2.02043794,
      "shelter": true
    },
    {
      "id": "235ee172-5263-4bc2-b999-b0047c02dcd3",
      "name": "Howard Davis Mews",
      "stopNumber": "3963",
      "latitude": 49.18085197,
      "longitude": -2.09716332,
      "shelter": false
    },
    {
      "id": "23901cc2-0520-41a3-9242-1208738195a9",
      "name": "Church Lane",
      "stopNumber": "3784",
      "latitude": 49.21801016,
      "longitude": -2.05161666,
      "shelter": false
    },
    {
      "id": "23eb342c-0910-4621-926e-e0db965256d4",
      "name": "Ville de l'Eglise W",
      "stopNumber": "4352",
      "latitude": 49.21227447,
      "longitude": -2.18672714,
      "shelter": false
    },
    {
      "id": "23fc89db-3681-43d3-93b0-0625325e7a41",
      "name": "King Street",
      "stopNumber": "3472",
      "latitude": 49.18466276,
      "longitude": -2.10680959,
      "shelter": false
    },
    {
      "id": "24560e8a-932e-4ca1-9b74-5bae215c17e1",
      "name": "aMaizin! Park N",
      "stopNumber": "2392",
      "latitude": 49.22285624,
      "longitude": -2.19248557,
      "shelter": false
    },
    {
      "id": "24b7dc5e-87f7-40fe-bbd6-723826d11aaf",
      "name": "St Martins Hall W",
      "stopNumber": "3658",
      "latitude": 49.21899497,
      "longitude": -2.05335988,
      "shelter": false
    },
    {
      "id": "24ce67f0-d553-487a-90bc-cb9a4979398d",
      "name": "Clos des Blanches W",
      "stopNumber": "4568",
      "latitude": 49.17118272,
      "longitude": -2.08675419,
      "shelter": false
    },
    {
      "id": "24d7d2b0-6fb9-48d7-9510-b6a9cbe51a97",
      "name": "Trinity School S",
      "stopNumber": "3935",
      "latitude": 49.228897,
      "longitude": -2.09345172,
      "shelter": false
    },
    {
      "id": "24f4c937-4b97-4720-8edd-26b342d36a48",
      "name": "Les Routeurs S",
      "stopNumber": "4547",
      "latitude": 49.202969,
      "longitude": -2.07409025,
      "shelter": false
    },
    {
      "id": "24fbfcb8-4222-4b7d-b3fe-f617fb666366",
      "name": "Route du Francfief S",
      "stopNumber": "3264",
      "latitude": 49.19921698,
      "longitude": -2.17886134,
      "shelter": false
    },
    {
      "id": "251da299-79cb-46f5-9012-0b1f666d3ddd",
      "name": "Oxenford Close S",
      "stopNumber": "3538",
      "latitude": 49.22257145,
      "longitude": -2.14204544,
      "shelter": true
    },
    {
      "id": "2580b232-b344-490e-9361-a9b775f005be",
      "name": "Highfield Lane S",
      "stopNumber": "2627",
      "latitude": 49.20420491,
      "longitude": -2.08529145,
      "shelter": false
    },
    {
      "id": "26438ca3-f807-467c-b7ef-5f74e025cc81",
      "name": "Longueville Court W",
      "stopNumber": "3865",
      "latitude": 49.18259181,
      "longitude": -2.07494925,
      "shelter": false
    },
    {
      "id": "26ae8d1f-41a0-4fb7-ab6d-03970b054049",
      "name": "Parcq du Rivage E",
      "stopNumber": "3525",
      "latitude": 49.19692003,
      "longitude": -2.15296903,
      "shelter": false
    },
    {
      "id": "26c08015-324f-4d9f-8242-1eae8f845b04",
      "name": "La Mare Wine Estate",
      "stopNumber": "4546",
      "latitude": 49.24582139,
      "longitude": -2.16820535,
      "shelter": true
    },
    {
      "id": "2700149b-2d22-4818-8966-44b4cb0c7cf3",
      "name": "Portelet Bay",
      "stopNumber": "3574",
      "latitude": 49.17266891,
      "longitude": -2.17298848,
      "shelter": true
    },
    {
      "id": "2703d8db-7724-471e-af52-8014beaff42e",
      "name": "Hautes Croix House",
      "stopNumber": "2754",
      "latitude": 49.23992858,
      "longitude": -2.11137042,
      "shelter": false
    },
    {
      "id": "2720930c-3b71-40fa-b021-576222a595fb",
      "name": "La Fosse S",
      "stopNumber": "2373",
      "latitude": 49.23230218,
      "longitude": -2.04306294,
      "shelter": false
    },
    {
      "id": "276f2581-cd5f-44c7-bfea-24f13efe014e",
      "name": "Three Oaks N",
      "stopNumber": "3894",
      "latitude": 49.21925983,
      "longitude": -2.14049143,
      "shelter": false
    },
    {
      "id": "278aa4f4-4cc6-4dfc-99fc-1ae821b811ff",
      "name": "First Tower E",
      "stopNumber": "2632",
      "latitude": 49.19438162,
      "longitude": -2.12769645,
      "shelter": true
    },
    {
      "id": "2797fab2-85aa-4968-bffb-a3de9f81139a",
      "name": "Seven Oaks N",
      "stopNumber": "3723",
      "latitude": 49.18887153,
      "longitude": -2.18016103,
      "shelter": false
    },
    {
      "id": "2821ab24-d5f7-42be-a268-39979954d94a",
      "name": "Paul Mill S",
      "stopNumber": "3876",
      "latitude": 49.20646311,
      "longitude": -2.08419859,
      "shelter": false
    },
    {
      "id": "285f9baf-5e3b-4ea8-ba36-1f1257eca830",
      "name": "Georgetown Road E",
      "stopNumber": "2657",
      "latitude": 49.1789807,
      "longitude": -2.09265991,
      "shelter": false
    },
    {
      "id": "288cc5a9-8bee-40bd-902e-3f5d2376aeea",
      "name": "Mountrow Villas",
      "stopNumber": "2978",
      "latitude": 49.19953492,
      "longitude": -2.07887534,
      "shelter": false
    },
    {
      "id": "2892ff14-8a79-4fd0-9ddd-bc1c288f6e67",
      "name": "Bus Station Stand H",
      "stopNumber": "4532",
      "latitude": 49.18331174,
      "longitude": -2.10985696,
      "shelter": false
    },
    {
      "id": "28da98f5-ac20-486d-bd6b-8d82c8b9047d",
      "name": "St Peter Tech Park N",
      "stopNumber": "2792",
      "latitude": 49.21592897,
      "longitude": -2.18450214,
      "shelter": true
    },
    {
      "id": "292db697-0a28-4576-9a14-a36bed994e3c",
      "name": "Belmont Road",
      "stopNumber": "4672",
      "latitude": 49.18696385,
      "longitude": -2.10020225,
      "shelter": false
    },
    {
      "id": "298446a5-1876-4f70-b805-aa511177b945",
      "name": "Le Rocquier School",
      "stopNumber": "2424",
      "latitude": 49.1707026,
      "longitude": -2.06720589,
      "shelter": false
    },
    {
      "id": "29a446d2-cccb-45e9-ba2d-6a502152413d",
      "name": "Grande Charriere",
      "stopNumber": "3623",
      "latitude": 49.17308061,
      "longitude": -2.08897142,
      "shelter": true
    },
    {
      "id": "2a08a184-c36f-4927-834e-01e1c4338882",
      "name": "Jeffreys Leap E",
      "stopNumber": "2797",
      "latitude": 49.20345037,
      "longitude": -2.02084265,
      "shelter": false
    },
    {
      "id": "2a1524b8-e10d-4db0-a1fb-91d7267dd9c9",
      "name": "St Marys School E",
      "stopNumber": "2965",
      "latitude": 49.23630322,
      "longitude": -2.17421667,
      "shelter": false
    },
    {
      "id": "2a53ac38-6ea7-431f-8677-53d926593c93",
      "name": "Rue du Cerf E",
      "stopNumber": "3672",
      "latitude": 49.24175844,
      "longitude": -2.15518549,
      "shelter": false
    },
    {
      "id": "2a68cfb8-45be-40e2-a1cf-f598e52f8778",
      "name": "Marina Cottages",
      "stopNumber": "3289",
      "latitude": 49.20274294,
      "longitude": -2.04551501,
      "shelter": true
    },
    {
      "id": "2a75f45c-7a3f-441c-ba25-d871c70a3e3d",
      "name": "Clos de Charriere E",
      "stopNumber": "4378",
      "latitude": 49.17391368,
      "longitude": -2.08962501,
      "shelter": false
    },
    {
      "id": "2a7efa7a-b913-461f-9827-106f92f9953c",
      "name": "Langley Avenue N",
      "stopNumber": "2827",
      "latitude": 49.19649272,
      "longitude": -2.08976125,
      "shelter": false
    },
    {
      "id": "2a843ad9-c744-4f25-8745-ee3d0f72dad5",
      "name": "Clos de Longueville",
      "stopNumber": "3654",
      "latitude": 49.1826208,
      "longitude": -2.07984389,
      "shelter": false
    },
    {
      "id": "2af648ae-2830-43a5-b261-63588fe55a41",
      "name": "Rue de Samares",
      "stopNumber": "3682",
      "latitude": 49.17208998,
      "longitude": -2.07404617,
      "shelter": false
    },
    {
      "id": "2af84cd9-d5ee-4509-888d-dc1a7a396736",
      "name": "Rue des Cotils",
      "stopNumber": "2587",
      "latitude": 49.20655041,
      "longitude": -2.11328828,
      "shelter": false
    },
    {
      "id": "2bbbfb86-b5e6-4605-8fa8-034da39dcec1",
      "name": "Trinity Youth Club N",
      "stopNumber": "3929",
      "latitude": 49.23468638,
      "longitude": -2.09161438,
      "shelter": false
    },
    {
      "id": "2c062058-cbd0-4032-ba78-059e38634fb8",
      "name": "Belval S",
      "stopNumber": "2672",
      "latitude": 49.22197571,
      "longitude": -2.02619685,
      "shelter": false
    },
    {
      "id": "2c46efd2-031d-47e8-a329-bd9ed6366dea",
      "name": "St Marys Church W",
      "stopNumber": "3792",
      "latitude": 49.23504365,
      "longitude": -2.17288969,
      "shelter": false
    },
    {
      "id": "2c648e67-fd64-4938-a0e0-8066bf8aa73f",
      "name": "R. J. Showground N",
      "stopNumber": "4357",
      "latitude": 49.23177337,
      "longitude": -2.09341407,
      "shelter": false
    },
    {
      "id": "2ccc58e0-a235-40b4-9b5f-c422f0f060e3",
      "name": "La Hougue Bie E",
      "stopNumber": "2858",
      "latitude": 49.20091526,
      "longitude": -2.06361906,
      "shelter": false
    },
    {
      "id": "2ce8238d-3944-47b6-b327-548a4ace701b",
      "name": "Five Mile Avenue S",
      "stopNumber": "2369",
      "latitude": 49.22672149,
      "longitude": -2.23064702,
      "shelter": false
    },
    {
      "id": "2d2090ea-b99e-40e2-b7f1-15afdfc03132",
      "name": "Jersey War Tunnels",
      "stopNumber": "3973",
      "latitude": 49.20915387,
      "longitude": -2.15337938,
      "shelter": true
    },
    {
      "id": "2ddc172e-0f2c-40e9-8b27-86505b6aba78",
      "name": "Le Bu de la Rue",
      "stopNumber": "4368",
      "latitude": 49.21679104,
      "longitude": -2.12637137,
      "shelter": false
    },
    {
      "id": "2e5d6458-db3c-4685-a283-b580b213df1a",
      "name": "Cannon Street",
      "stopNumber": "4654",
      "latitude": 49.18772851,
      "longitude": -2.10948374,
      "shelter": false
    },
    {
      "id": "2f014eaf-c737-4a2b-acdc-cd931c96983f",
      "name": "Overdale Hospital",
      "stopNumber": "3498",
      "latitude": 49.19144694,
      "longitude": -2.1164537,
      "shelter": false
    },
    {
      "id": "2f478a2e-9a87-4ea8-a8c7-97fb43e04be6",
      "name": "Millennium Park S",
      "stopNumber": "4675",
      "latitude": 49.18739633,
      "longitude": -2.10255274,
      "shelter": false
    },
    {
      "id": "2f7a23ab-25a4-4a04-ba6e-73ed671e63f4",
      "name": "Clinique Pinel",
      "stopNumber": "3838",
      "latitude": 49.20265783,
      "longitude": -2.04633938,
      "shelter": false
    },
    {
      "id": "3079510d-7150-4415-840a-ac8fc4eaab8a",
      "name": "Rue des Brulees N",
      "stopNumber": "4253",
      "latitude": 49.22558019,
      "longitude": -2.09364822,
      "shelter": false
    },
    {
      "id": "30b72f34-21f0-432c-a6c7-946e3249dbbe",
      "name": "La Pellerie W",
      "stopNumber": "4268",
      "latitude": 49.24482949,
      "longitude": -2.09385175,
      "shelter": false
    },
    {
      "id": "30fe486d-71e4-47ca-bff5-30ac4f3b87a2",
      "name": "The Old Forge E",
      "stopNumber": "4294",
      "latitude": 49.24024034,
      "longitude": -2.10425547,
      "shelter": false
    },
    {
      "id": "3115dc82-fbd4-4eb4-b325-112919d71691",
      "name": "Maufant Village N",
      "stopNumber": "3892",
      "latitude": 49.20950914,
      "longitude": -2.06286665,
      "shelter": false
    },
    {
      "id": "316c9f07-f1bb-4a42-b57b-86863f32b0e8",
      "name": "Bethlehem Chapel W",
      "stopNumber": "2396",
      "latitude": 49.23504393,
      "longitude": -2.17051956,
      "shelter": false
    },
    {
      "id": "319401e5-4deb-4a5b-b5d0-4d522937671e",
      "name": "La Pellerie E",
      "stopNumber": "3639",
      "latitude": 49.24486845,
      "longitude": -2.0938347,
      "shelter": false
    },
    {
      "id": "31be0b4c-4d4d-464b-8061-3efaee51b557",
      "name": "Chemin du Moulin S",
      "stopNumber": "2634",
      "latitude": 49.23295369,
      "longitude": -2.23254487,
      "shelter": false
    },
    {
      "id": "31d614c0-2960-4671-9b43-012bc47690c4",
      "name": "Rue de la Haye",
      "stopNumber": "4592",
      "latitude": 49.21699519,
      "longitude": -2.05303556,
      "shelter": false
    },
    {
      "id": "3249c7ca-90c3-4333-9b80-5829d1599957",
      "name": "St Clement Gardens E",
      "stopNumber": "3758",
      "latitude": 49.17490047,
      "longitude": -2.08532146,
      "shelter": false
    },
    {
      "id": "327468c4-bbda-448e-a07c-e21a8bc00fef",
      "name": "Mont Fallu S",
      "stopNumber": "3828",
      "latitude": 49.20863418,
      "longitude": -2.1754933,
      "shelter": false
    },
    {
      "id": "327cbbfa-667d-4f83-b4f9-658eafe279a2",
      "name": "Birches Avenue W",
      "stopNumber": "2423",
      "latitude": 49.19613719,
      "longitude": -2.08988165,
      "shelter": false
    },
    {
      "id": "3292d67c-7683-4f0a-8dcf-8d59316e82bd",
      "name": "St Marys Church E",
      "stopNumber": "3794",
      "latitude": 49.23508337,
      "longitude": -2.1729158,
      "shelter": true
    },
    {
      "id": "32b0fa36-68bb-4bc9-8091-6f61ba056c0e",
      "name": "Maison des Landes",
      "stopNumber": "3278",
      "latitude": 49.24444692,
      "longitude": -2.24138446,
      "shelter": false
    },
    {
      "id": "32b45f20-8bd9-4603-8991-c096b9b460a3",
      "name": "Oaklands Manor",
      "stopNumber": "3489",
      "latitude": 49.21248976,
      "longitude": -2.08245297,
      "shelter": false
    },
    {
      "id": "32ec33dd-840a-4785-a945-87c102696d5f",
      "name": "Landscape Grove N",
      "stopNumber": "4584",
      "latitude": 49.20110112,
      "longitude": -2.12941975,
      "shelter": false
    },
    {
      "id": "33440a97-ee4c-435a-92d3-0dbcc0765c56",
      "name": "St Ouen Manor S",
      "stopNumber": "2927",
      "latitude": 49.22490183,
      "longitude": -2.19544602,
      "shelter": false
    },
    {
      "id": "33b22c33-9bf5-4f8c-b21b-a5b2d0deb30b",
      "name": "La Fantaisie",
      "stopNumber": "3649",
      "latitude": 49.21659762,
      "longitude": -2.05901281,
      "shelter": false
    },
    {
      "id": "33d1265c-7e47-49d2-850e-37f0c506b7c4",
      "name": "St Saviours Church N",
      "stopNumber": "3837",
      "latitude": 49.19481145,
      "longitude": -2.09085756,
      "shelter": false
    },
    {
      "id": "33d7e5d6-37b4-4416-9011-25df6a15398d",
      "name": "La Rocque Church N",
      "stopNumber": "2897",
      "latitude": 49.17264315,
      "longitude": -2.03108395,
      "shelter": false
    },
    {
      "id": "341334b5-54f6-41d7-a729-848136d94714",
      "name": "Jersey Pearl S",
      "stopNumber": "3679",
      "latitude": 49.23088856,
      "longitude": -2.23352954,
      "shelter": false
    },
    {
      "id": "3445aa25-a654-4519-853f-9dcefca60889",
      "name": "Links Estate N",
      "stopNumber": "3262",
      "latitude": 49.19027007,
      "longitude": -2.03873552,
      "shelter": false
    },
    {
      "id": "34b0bafd-c01f-485d-8369-794b32220e19",
      "name": "The Mermaid S",
      "stopNumber": "3423",
      "latitude": 49.20468318,
      "longitude": -2.18977209,
      "shelter": true
    },
    {
      "id": "34cab2bb-e64f-4be4-bebd-3fe4358fb360",
      "name": "Clos de la Mielle E",
      "stopNumber": "2865",
      "latitude": 49.19407461,
      "longitude": -2.16413996,
      "shelter": false
    },
    {
      "id": "366d64bf-9022-46b9-a72c-20811507c7e2",
      "name": "Chapel Lane",
      "stopNumber": "3763",
      "latitude": 49.18329022,
      "longitude": -2.10021539,
      "shelter": false
    },
    {
      "id": "366ffc9a-7397-4a85-83e8-99b1980ae4af",
      "name": "Trinity Youth Club S",
      "stopNumber": "4369",
      "latitude": 49.23492761,
      "longitude": -2.09154086,
      "shelter": false
    },
    {
      "id": "3685810a-e459-4e09-8c1d-51c429d2bece",
      "name": "St Brelade College W",
      "stopNumber": "3747",
      "latitude": 49.18806812,
      "longitude": -2.17569956,
      "shelter": false
    },
    {
      "id": "36a20ab6-15f7-4836-9ae9-0cda942ecd08",
      "name": "Anne Port Slipway S",
      "stopNumber": "4343",
      "latitude": 49.20523636,
      "longitude": -2.02261693,
      "shelter": false
    },
    {
      "id": "36f54b4b-88d0-40aa-b18f-9f48f6204c6a",
      "name": "Le Couvent",
      "stopNumber": "4236",
      "latitude": 49.22206255,
      "longitude": -2.12523118,
      "shelter": false
    },
    {
      "id": "370459be-42a4-42f8-9f73-d5ac063d709b",
      "name": "Brampton Farm W",
      "stopNumber": "2457",
      "latitude": 49.2348076,
      "longitude": -2.19002763,
      "shelter": false
    },
    {
      "id": "3715429b-3c88-4467-9f49-64c003eeddba",
      "name": "Rue des Fonds W",
      "stopNumber": "3652",
      "latitude": 49.18587843,
      "longitude": -2.04552016,
      "shelter": false
    },
    {
      "id": "371db7ea-06e7-4441-abc5-0fdcb3376c66",
      "name": "La Lande E",
      "stopNumber": "2626",
      "latitude": 49.24631515,
      "longitude": -2.1060524,
      "shelter": false
    },
    {
      "id": "37642575-70b3-4225-867c-c036f85ca4a2",
      "name": "Bel Royal Gardens",
      "stopNumber": "2385",
      "latitude": 49.19818849,
      "longitude": -2.14639065,
      "shelter": true
    },
    {
      "id": "38216137-8f3b-4f3f-b34e-7db04dab0660",
      "name": "Ruette de Faldouet E",
      "stopNumber": "2928",
      "latitude": 49.20357945,
      "longitude": -2.03335453,
      "shelter": false
    },
    {
      "id": "382f3b7d-df10-4246-8ab4-bdc1a712ee5f",
      "name": "La Grande Mielle",
      "stopNumber": "4387",
      "latitude": 49.17983216,
      "longitude": -2.03539094,
      "shelter": false
    },
    {
      "id": "384b88b4-24df-4142-a6ff-ee4beae8f38e",
      "name": "Le Marais",
      "stopNumber": "4392",
      "latitude": 49.16737164,
      "longitude": -2.07930498,
      "shelter": true
    },
    {
      "id": "385a2f8e-495e-414e-bde0-52f2334010e0",
      "name": "Rue d'Egypte E",
      "stopNumber": "2584",
      "latitude": 49.2453339,
      "longitude": -2.09881542,
      "shelter": false
    },
    {
      "id": "388ecab5-57f5-4903-83a9-c636adbc9a9b",
      "name": "Belle Vue N",
      "stopNumber": "3492",
      "latitude": 49.19753172,
      "longitude": -2.19781995,
      "shelter": true
    },
    {
      "id": "38d748a8-e09f-4f08-ab4d-9c2ada162256",
      "name": "Ouaisne Junction S",
      "stopNumber": "3572",
      "latitude": 49.17689057,
      "longitude": -2.17311,
      "shelter": false
    },
    {
      "id": "3920578e-7e14-4b43-b3b9-b6f739d727f1",
      "name": "Archirondel S",
      "stopNumber": "2352",
      "latitude": 49.21006403,
      "longitude": -2.02576896,
      "shelter": false
    },
    {
      "id": "3a1553da-23a0-4d3b-8e14-1ff3a966e9bc",
      "name": "Gloster Terrace S",
      "stopNumber": "2628",
      "latitude": 49.19182432,
      "longitude": -2.10911979,
      "shelter": true
    },
    {
      "id": "3a299289-3df5-4b0d-bb75-e9c7e3c2f600",
      "name": "St Peters Arsenal N",
      "stopNumber": "3827",
      "latitude": 49.20172676,
      "longitude": -2.18031431,
      "shelter": false
    },
    {
      "id": "3a8146b9-f7e2-4ba8-bce3-6845a03495b0",
      "name": "Hameau de la Mer W",
      "stopNumber": "2784",
      "latitude": 49.16683593,
      "longitude": -2.0398548,
      "shelter": true
    },
    {
      "id": "3a897f1b-0ab6-4cc0-8e22-7ba7348b62a1",
      "name": "St Lawrence Church N",
      "stopNumber": "3768",
      "latitude": 49.21376342,
      "longitude": -2.14135075,
      "shelter": true
    },
    {
      "id": "3aa42824-5b5b-4906-bdc0-35c481f4ba03",
      "name": "Midland Stores N",
      "stopNumber": "2473",
      "latitude": 49.20853257,
      "longitude": -2.06553301,
      "shelter": false
    },
    {
      "id": "3afa4029-1bff-46f0-8b07-3e13fdbea078",
      "name": "Troy Court N",
      "stopNumber": "3937",
      "latitude": 49.19632007,
      "longitude": -2.09674513,
      "shelter": false
    },
    {
      "id": "3c3b82fb-8b91-45de-8df0-a44c8e4e83c7",
      "name": "Grouville Arsenal W",
      "stopNumber": "2346",
      "latitude": 49.1813584,
      "longitude": -2.05987778,
      "shelter": true
    },
    {
      "id": "3c4a2553-d1ce-4d1e-86ed-32487cb735cf",
      "name": "Petit Port Close",
      "stopNumber": "3536",
      "latitude": 49.18410041,
      "longitude": -2.22748612,
      "shelter": false
    },
    {
      "id": "3c8280cd-f1a9-42e0-9dd6-66406d5a204a",
      "name": "Byron Road N",
      "stopNumber": "2749",
      "latitude": 49.19144264,
      "longitude": -2.10284305,
      "shelter": false
    },
    {
      "id": "3c91b106-039e-496a-9ee7-226bf3bc603c",
      "name": "Gloucester Street N",
      "stopNumber": "3524",
      "latitude": 49.1877109,
      "longitude": -2.11016197,
      "shelter": true
    },
    {
      "id": "3ca524d6-5345-40da-a9b5-c29b9f62e3c5",
      "name": "Patier Road",
      "stopNumber": "4373",
      "latitude": 49.19489723,
      "longitude": -2.08602661,
      "shelter": false
    },
    {
      "id": "3cda3a43-9d66-4b4e-bc30-e52a15e239cf",
      "name": "The Mermaid N",
      "stopNumber": "2474",
      "latitude": 49.20473926,
      "longitude": -2.189935,
      "shelter": true
    },
    {
      "id": "3d3b2446-1e3c-4bf5-9552-e795b93db931",
      "name": "Tunnell Street",
      "stopNumber": "2345",
      "latitude": 49.18798987,
      "longitude": -2.09723561,
      "shelter": false
    },
    {
      "id": "3d622231-4bfd-47cf-8403-82d23914146b",
      "name": "Les Landes Avenue W",
      "stopNumber": "2638",
      "latitude": 49.18695249,
      "longitude": -2.18625971,
      "shelter": false
    },
    {
      "id": "3d8fc477-77b3-40ff-bea9-841a846928ce",
      "name": "Grasett Park E",
      "stopNumber": "2697",
      "latitude": 49.17696883,
      "longitude": -2.08833135,
      "shelter": true
    },
    {
      "id": "3d90183a-577c-4be4-b8fd-79e68394085a",
      "name": "Jersey Airport",
      "stopNumber": "2326",
      "latitude": 49.20592224,
      "longitude": -2.19462701,
      "shelter": true
    },
    {
      "id": "3de1da5c-4dd7-42e1-913f-6dbd70217d60",
      "name": "The Crematorium",
      "stopNumber": "2548",
      "latitude": 49.19332092,
      "longitude": -2.11544114,
      "shelter": false
    },
    {
      "id": "3e080ec8-00f4-49b5-ba15-c3ebce2845b2",
      "name": "Clos des Champs S",
      "stopNumber": "2647",
      "latitude": 49.21519439,
      "longitude": -2.0661214,
      "shelter": false
    },
    {
      "id": "3e32072b-f33c-49ef-b67b-a21ae1f1ffe6",
      "name": "The Royal W",
      "stopNumber": "3783",
      "latitude": 49.21788216,
      "longitude": -2.05098654,
      "shelter": true
    },
    {
      "id": "3e7e9e5e-c4fd-42e1-bb38-1c20523f2722",
      "name": "Rue du Hucquet E",
      "stopNumber": "3274",
      "latitude": 49.22057976,
      "longitude": -2.05765729,
      "shelter": false
    },
    {
      "id": "3ea42723-cacb-4d7e-beee-f2aefce07961",
      "name": "Grouville Church W",
      "stopNumber": "2742",
      "latitude": 49.18364814,
      "longitude": -2.04985142,
      "shelter": false
    },
    {
      "id": "3eb91bbc-5d69-4f67-b1ba-6bb5d20b1c21",
      "name": "Southfork Farm",
      "stopNumber": "3735",
      "latitude": 49.20672871,
      "longitude": -2.06576356,
      "shelter": false
    },
    {
      "id": "3edf02f9-dde0-43a8-bd7f-a08f282bf740",
      "name": "Hollydale Estate N",
      "stopNumber": "2768",
      "latitude": 49.20422846,
      "longitude": -2.14044499,
      "shelter": false
    },
    {
      "id": "3fb25223-3bb1-4aaa-a503-dce1ca9663e5",
      "name": "Les Varines E",
      "stopNumber": "2597",
      "latitude": 49.18229975,
      "longitude": -2.08462256,
      "shelter": false
    },
    {
      "id": "403230f7-f668-44de-8c1f-65015b730bbe",
      "name": "Rue des Pres Estate",
      "stopNumber": "3656",
      "latitude": 49.18186594,
      "longitude": -2.07853347,
      "shelter": false
    },
    {
      "id": "4101a28d-3cd6-4d64-8db4-062a0ebbe57c",
      "name": "Le Feugerel E",
      "stopNumber": "2946",
      "latitude": 49.18602208,
      "longitude": -2.22084668,
      "shelter": false
    },
    {
      "id": "4120b5d5-7788-472c-a727-71062380c39e",
      "name": "Mont a l'Abbe Sch S",
      "stopNumber": "3454",
      "latitude": 49.20293843,
      "longitude": -2.11365506,
      "shelter": true
    },
    {
      "id": "4130eed9-335e-402d-9623-5e36ce42720a",
      "name": "Clos de Charriere W",
      "stopNumber": "4379",
      "latitude": 49.17397568,
      "longitude": -2.08978164,
      "shelter": false
    },
    {
      "id": "4138e953-8ce4-4fc5-a225-afb857ea316e",
      "name": "Rue des Camps",
      "stopNumber": "2379",
      "latitude": 49.18295513,
      "longitude": -2.22032344,
      "shelter": false
    },
    {
      "id": "414bb43c-b5db-4d11-909c-b4ec792adc03",
      "name": "Samares Manor E",
      "stopNumber": "3683",
      "latitude": 49.17347333,
      "longitude": -2.07923285,
      "shelter": false
    },
    {
      "id": "41da51bb-07b5-4ab6-a623-7723f1c2334a",
      "name": "Radisson Hotel",
      "stopNumber": "4652",
      "latitude": 49.18389613,
      "longitude": -2.11511355,
      "shelter": false
    },
    {
      "id": "42dd7549-0ee2-4815-a1b9-dabcfa92aec4",
      "name": "Croix au Maitre",
      "stopNumber": "2563",
      "latitude": 49.22045323,
      "longitude": -2.05770725,
      "shelter": false
    },
    {
      "id": "431a4ea9-1505-4368-b959-80aca3b20b2d",
      "name": "St Bernards W",
      "stopNumber": "2476",
      "latitude": 49.20210554,
      "longitude": -2.0533034,
      "shelter": false
    },
    {
      "id": "43558189-05df-4439-87fb-7929c78a2e58",
      "name": "Le Feugerel W",
      "stopNumber": "3587",
      "latitude": 49.1859627,
      "longitude": -2.22109922,
      "shelter": false
    },
    {
      "id": "43e3d7cd-8c20-4042-83a0-ceb2059ecaa3",
      "name": "Grands Vaux School",
      "stopNumber": "2696",
      "latitude": 49.20267083,
      "longitude": -2.0912337,
      "shelter": false
    },
    {
      "id": "4478f256-96cb-49d0-bae6-9d2804557f2b",
      "name": "St Matthews Church W",
      "stopNumber": "2673",
      "latitude": 49.19845496,
      "longitude": -2.14276427,
      "shelter": false
    },
    {
      "id": "450f14e8-13c4-4520-a5a8-5c134f48701c",
      "name": "Broad Street",
      "stopNumber": "2462",
      "latitude": 49.18444782,
      "longitude": -2.1080807,
      "shelter": false
    },
    {
      "id": "453974ad-f7f8-476e-b3a4-bfd896c4052e",
      "name": "Les Hougues W",
      "stopNumber": "4398",
      "latitude": 49.23329862,
      "longitude": -2.06932599,
      "shelter": false
    },
    {
      "id": "45434e2c-ad5a-4427-baf4-d0d70a0affba",
      "name": "La Blanche Maison S",
      "stopNumber": "3979",
      "latitude": 49.23947014,
      "longitude": -2.23990114,
      "shelter": false
    },
    {
      "id": "455fe15a-2636-41dc-bcac-e6e8493315d9",
      "name": "Hamptonne Museum",
      "stopNumber": "4367",
      "latitude": 49.22181804,
      "longitude": -2.14169973,
      "shelter": false
    },
    {
      "id": "45d0f467-2e27-4a11-aeaf-2a4316700f09",
      "name": "Atlantic Hotel E",
      "stopNumber": "2354",
      "latitude": 49.18684858,
      "longitude": -2.22537393,
      "shelter": false
    },
    {
      "id": "467adefe-3664-4ece-8141-40e686493c7a",
      "name": "Seymour Inn N",
      "stopNumber": "3695",
      "latitude": 49.16963517,
      "longitude": -2.0300495,
      "shelter": false
    },
    {
      "id": "468de431-6470-4be8-a7fe-57092400c476",
      "name": "Pontorson Lane W",
      "stopNumber": "2838",
      "latitude": 49.16759427,
      "longitude": -2.06448806,
      "shelter": false
    },
    {
      "id": "46cad13c-a41f-4e38-8e6d-57c4d4e71909",
      "name": "Five Oaks N",
      "stopNumber": "2636",
      "latitude": 49.19898301,
      "longitude": -2.07991986,
      "shelter": false
    },
    {
      "id": "4745cc54-4262-40f3-88a6-89a68323b67d",
      "name": "Le Don Baudains",
      "stopNumber": "4597",
      "latitude": 49.17350381,
      "longitude": -2.05140748,
      "shelter": false
    },
    {
      "id": "47761a56-04ea-43d2-9fba-da244902cc22",
      "name": "Don Farm",
      "stopNumber": "2542",
      "latitude": 49.19457445,
      "longitude": -2.19880771,
      "shelter": true
    },
    {
      "id": "4799e1e5-e088-4993-8c3f-e919f5a9eb90",
      "name": "Jardin des Carreaux",
      "stopNumber": "2794",
      "latitude": 49.19861306,
      "longitude": -2.11328558,
      "shelter": true
    },
    {
      "id": "47e35417-1ff3-4ce1-8c45-fc53a886e983",
      "name": "Regent Road",
      "stopNumber": "4574",
      "latitude": 49.18083453,
      "longitude": -2.10272302,
      "shelter": false
    },
    {
      "id": "48584f0e-0b1f-4660-80a3-f5e3c421ff92",
      "name": "Le Hurel S",
      "stopNumber": "2958",
      "latitude": 49.22026045,
      "longitude": -2.09415664,
      "shelter": false
    },
    {
      "id": "48b0cdd2-67b8-47cc-aff9-0860fef4094e",
      "name": "Clos des Blanches E",
      "stopNumber": "4567",
      "latitude": 49.17099605,
      "longitude": -2.08646835,
      "shelter": false
    },
    {
      "id": "49130e8f-809a-4ce6-ab7f-dda76913a38f",
      "name": "Bethlehem Chapel E",
      "stopNumber": "3796",
      "latitude": 49.23509298,
      "longitude": -2.17022906,
      "shelter": false
    },
    {
      "id": "49131e94-54e9-4c5f-ad71-5011a6dd9d1d",
      "name": "Midbay E",
      "stopNumber": "3426",
      "latitude": 49.1852819,
      "longitude": -2.19568239,
      "shelter": false
    },
    {
      "id": "494f9e6f-faa0-45d6-8177-8e9703a03a53",
      "name": "Links Estate S",
      "stopNumber": "2936",
      "latitude": 49.19003623,
      "longitude": -2.03884536,
      "shelter": false
    },
    {
      "id": "496967ba-f76e-4c4f-ba6f-c6cb6368e7d6",
      "name": "St Catherines Wood S",
      "stopNumber": "3753",
      "latitude": 49.21725648,
      "longitude": -2.03118821,
      "shelter": false
    },
    {
      "id": "496d7944-c207-47e7-8301-b53265e7a7af",
      "name": "Victoria Hotel N",
      "stopNumber": "3959",
      "latitude": 49.21073562,
      "longitude": -2.16129784,
      "shelter": false
    },
    {
      "id": "4984ae3c-643b-4c14-942a-36d6c32cbee6",
      "name": "Bagatelle Parade N",
      "stopNumber": "2943",
      "latitude": 49.19649275,
      "longitude": -2.0825435,
      "shelter": false
    },
    {
      "id": "49a86ad9-b6bb-406c-a169-6bf8550f9a91",
      "name": "Sea View Farm",
      "stopNumber": "2737",
      "latitude": 49.25224452,
      "longitude": -2.2307111,
      "shelter": false
    },
    {
      "id": "4a4cdf44-73ce-4f0b-ab08-3169b5d6de2b",
      "name": "Rue du Bocage",
      "stopNumber": "4348",
      "latitude": 49.21359229,
      "longitude": -2.18944569,
      "shelter": false
    },
    {
      "id": "4a6273d8-b646-4dcb-a203-871e7f38a880",
      "name": "Sandybrook S",
      "stopNumber": "3247",
      "latitude": 49.20235788,
      "longitude": -2.15491303,
      "shelter": false
    },
    {
      "id": "4ac88e6a-d73b-444f-95c4-ca2626239332",
      "name": "La Collette Shops",
      "stopNumber": "2846",
      "latitude": 49.17745809,
      "longitude": -2.10458927,
      "shelter": false
    },
    {
      "id": "4b1ec261-5760-4d65-ad7d-085128ac2683",
      "name": "Greenhills S",
      "stopNumber": "3484",
      "latitude": 49.21774577,
      "longitude": -2.17316911,
      "shelter": false
    },
    {
      "id": "4b5846a6-477e-4d05-8fcd-f15a6e19f59b",
      "name": "Rue de la Chesnaie S",
      "stopNumber": "3642",
      "latitude": 49.2280249,
      "longitude": -2.11478408,
      "shelter": false
    },
    {
      "id": "4bd4dd72-8190-47d0-87ea-5722dd0b275c",
      "name": "Betchet es Cats W",
      "stopNumber": "4274",
      "latitude": 49.24668217,
      "longitude": -2.11142663,
      "shelter": false
    },
    {
      "id": "4bec26d9-9e2e-40d4-a88d-c0218be4d834",
      "name": "Route de Plemont",
      "stopNumber": "4276",
      "latitude": 49.25167131,
      "longitude": -2.22528234,
      "shelter": false
    },
    {
      "id": "4ca2edf2-ebe0-4456-b418-0fa5210e5e70",
      "name": "Sydney Crill Park E",
      "stopNumber": "4383",
      "latitude": 49.16982096,
      "longitude": -2.05175994,
      "shelter": false
    },
    {
      "id": "4cbcad8a-1e88-4742-b0f9-ef614b11ad0c",
      "name": "Bay View Court",
      "stopNumber": "2368",
      "latitude": 49.19192145,
      "longitude": -2.12242793,
      "shelter": false
    },
    {
      "id": "4cbee567-e4be-4003-a700-5c4424123658",
      "name": "Rozel Manor S",
      "stopNumber": "3897",
      "latitude": 49.22730936,
      "longitude": -2.04700954,
      "shelter": false
    },
    {
      "id": "4d809174-f99e-493a-8c3a-2e38b961e97e",
      "name": "Rue de la Croiserie",
      "stopNumber": "3259",
      "latitude": 49.21110682,
      "longitude": -2.09699537,
      "shelter": false
    },
    {
      "id": "4e149c88-25eb-4547-99b6-17e3db414f90",
      "name": "St Marys Garage E",
      "stopNumber": "3795",
      "latitude": 49.23534768,
      "longitude": -2.16800848,
      "shelter": false
    },
    {
      "id": "4e340d48-28b0-4265-a73f-a5f50c8a3ab3",
      "name": "Maupertuis Lane",
      "stopNumber": "4324",
      "latitude": 49.16793127,
      "longitude": -2.08227036,
      "shelter": false
    },
    {
      "id": "4e6548ed-d651-49d5-a5e2-0cab412929c8",
      "name": "Hotel de France N",
      "stopNumber": "3254",
      "latitude": 49.19046187,
      "longitude": -2.0971128,
      "shelter": false
    },
    {
      "id": "4ebc07e5-c0ab-420f-ab47-e2350d19fcf4",
      "name": "Snow Hill",
      "stopNumber": "3729",
      "latitude": 49.18357242,
      "longitude": -2.10350493,
      "shelter": true
    },
    {
      "id": "4ed44002-2f33-4ea3-9e90-09e13e952561",
      "name": "I. J. Bathe Field S",
      "stopNumber": "2353",
      "latitude": 49.20407512,
      "longitude": -2.0643693,
      "shelter": false
    },
    {
      "id": "4f1623a0-ef75-4b5f-8cf7-4d32cd42f380",
      "name": "Ryburn Road W",
      "stopNumber": "3593",
      "latitude": 49.17565235,
      "longitude": -2.08900692,
      "shelter": false
    },
    {
      "id": "4f51e060-c883-45fa-a57f-059da4968295",
      "name": "Ville Emphrie S",
      "stopNumber": "3968",
      "latitude": 49.2079086,
      "longitude": -2.14284704,
      "shelter": true
    },
    {
      "id": "4f911d10-5f8f-4a2c-9243-fa2d87e7be3b",
      "name": "Jersey Zoo",
      "stopNumber": "2579",
      "latitude": 49.2293241,
      "longitude": -2.07345756,
      "shelter": true
    },
    {
      "id": "503cca0e-11b7-4019-b115-a9c5a46cb445",
      "name": "Rue du Douet",
      "stopNumber": "3673",
      "latitude": 49.2271028,
      "longitude": -2.19803551,
      "shelter": false
    },
    {
      "id": "504d9916-59ce-44fc-9dca-bd8167192531",
      "name": "Fayreways Flats",
      "stopNumber": "4242",
      "latitude": 49.1980242,
      "longitude": -2.08198811,
      "shelter": false
    },
    {
      "id": "505400c3-f368-4095-a2c7-566ac1d4706f",
      "name": "Woodbine Farm",
      "stopNumber": "4264",
      "latitude": 49.23907134,
      "longitude": -2.21590877,
      "shelter": false
    },
    {
      "id": "506e5d0d-e05c-4f7a-be79-da8872693c9b",
      "name": "Chestnut Lea",
      "stopNumber": "2496",
      "latitude": 49.2036851,
      "longitude": -2.11541768,
      "shelter": false
    },
    {
      "id": "50a3aabc-474b-477a-bf1d-501a0749f9d9",
      "name": "Leamington Court",
      "stopNumber": "3584",
      "latitude": 49.19464963,
      "longitude": -2.10958662,
      "shelter": false
    },
    {
      "id": "50c63773-7bb6-4f19-96a8-73072db5cda1",
      "name": "Sea Crest Apts",
      "stopNumber": "3843",
      "latitude": 49.18393553,
      "longitude": -2.23405846,
      "shelter": false
    },
    {
      "id": "50faa48d-a55b-4eba-bea2-a552e3e2db41",
      "name": "Rue d'Egypte W",
      "stopNumber": "4269",
      "latitude": 49.24528837,
      "longitude": -2.09903142,
      "shelter": false
    },
    {
      "id": "514f7d06-946f-40c4-a320-8bdbabad4509",
      "name": "Victoria Hotel S",
      "stopNumber": "3958",
      "latitude": 49.21117921,
      "longitude": -2.16134816,
      "shelter": false
    },
    {
      "id": "51eb8207-3d7f-4b43-b5ff-f97d4e96c2ae",
      "name": "Les Charrieres N",
      "stopNumber": "2985",
      "latitude": 49.22415,
      "longitude": -2.18194826,
      "shelter": false
    },
    {
      "id": "51f24b16-47be-4b91-a641-66e8a78bbf74",
      "name": "Rue du Tapon W",
      "stopNumber": "4587",
      "latitude": 49.19821869,
      "longitude": -2.0725312,
      "shelter": false
    },
    {
      "id": "52359726-105a-413e-bd06-effdaa8b8cf9",
      "name": "Richmond Road",
      "stopNumber": "2532",
      "latitude": 49.19516344,
      "longitude": -2.10692311,
      "shelter": false
    },
    {
      "id": "533d9dfa-aded-43ef-bd99-2282b2164aee",
      "name": "Mont a l'Abbe Sch N",
      "stopNumber": "2764",
      "latitude": 49.20299463,
      "longitude": -2.11374812,
      "shelter": false
    },
    {
      "id": "534979ba-aace-47ea-86a3-b8f55af74e03",
      "name": "Rue de Bel Air W",
      "stopNumber": "3949",
      "latitude": 49.23613508,
      "longitude": -2.16456465,
      "shelter": false
    },
    {
      "id": "53803f29-57b9-4167-94ca-e7749a6f6267",
      "name": "Grainville School",
      "stopNumber": "2692",
      "latitude": 49.19835113,
      "longitude": -2.08707844,
      "shelter": false
    },
    {
      "id": "538585bd-da20-473f-a2e9-6ecf1646a2cf",
      "name": "Blanches Pierres",
      "stopNumber": "2426",
      "latitude": 49.2441005,
      "longitude": -2.21233256,
      "shelter": false
    },
    {
      "id": "539e26ef-c44e-4233-9baa-da0352cd1e0f",
      "name": "The Windmill E",
      "stopNumber": "3878",
      "latitude": 49.23340509,
      "longitude": -2.18342567,
      "shelter": false
    },
    {
      "id": "5459cb75-b691-4989-b9f3-1303a899b1e9",
      "name": "St Clements School W",
      "stopNumber": "2968",
      "latitude": 49.17095684,
      "longitude": -2.06797231,
      "shelter": true
    },
    {
      "id": "546480c8-25ae-4334-bb07-7ae0dc402cb4",
      "name": "Longueville Manor E",
      "stopNumber": "3476",
      "latitude": 49.18335936,
      "longitude": -2.07818129,
      "shelter": false
    },
    {
      "id": "549f8380-86b3-4e58-bf96-0c63f4a0f6b1",
      "name": "La Profonde Rue",
      "stopNumber": "2945",
      "latitude": 49.24299064,
      "longitude": -2.22252333,
      "shelter": false
    },
    {
      "id": "54bac880-87c5-4cf2-82a0-25df86234d58",
      "name": "Bus Station Stand L",
      "stopNumber": "4537",
      "latitude": 49.18344319,
      "longitude": -2.10980006,
      "shelter": false
    },
    {
      "id": "54eed86d-ee85-4941-bbae-e3909732f02a",
      "name": "Avalon Park W",
      "stopNumber": "2834",
      "latitude": 49.16476735,
      "longitude": -2.07941522,
      "shelter": true
    },
    {
      "id": "55bf9111-8b10-432e-a006-5a6dfdc74afd",
      "name": "Portinfer Junction",
      "stopNumber": "3575",
      "latitude": 49.25137022,
      "longitude": -2.22604025,
      "shelter": false
    },
    {
      "id": "55e9f34e-8ebf-4618-9af4-dea380d5502a",
      "name": "La Longue Rue E",
      "stopNumber": "2842",
      "latitude": 49.21588317,
      "longitude": -2.04472232,
      "shelter": false
    },
    {
      "id": "55ecf871-6da8-498b-8422-bfad0befc1de",
      "name": "Millennium Park N",
      "stopNumber": "4683",
      "latitude": 49.18743963,
      "longitude": -2.10263277,
      "shelter": false
    },
    {
      "id": "5604379c-1ece-4cd1-a425-1bfd21ea07a5",
      "name": "Mont Nicolle W",
      "stopNumber": "3464",
      "latitude": 49.18821384,
      "longitude": -2.18933232,
      "shelter": true
    },
    {
      "id": "561b39d5-90f5-4978-803c-7b991dd477e8",
      "name": "West Park Slipway",
      "stopNumber": "2852",
      "latitude": 49.18669789,
      "longitude": -2.11562195,
      "shelter": true
    },
    {
      "id": "56b81bcc-b701-4168-8221-b9c54148851f",
      "name": "Hotel de France S",
      "stopNumber": "2786",
      "latitude": 49.190568,
      "longitude": -2.09707577,
      "shelter": true
    },
    {
      "id": "56ea0319-3e85-4869-aa9a-15668e844b47",
      "name": "Clos des Sables E",
      "stopNumber": "3537",
      "latitude": 49.1895884,
      "longitude": -2.20652262,
      "shelter": true
    },
    {
      "id": "56fd64d3-0591-474a-a685-bb30f1b80bfc",
      "name": "Jubilee Hill",
      "stopNumber": "4234",
      "latitude": 49.21108143,
      "longitude": -2.21092142,
      "shelter": false
    },
    {
      "id": "5761ae45-a78e-4fb7-8737-a899753cddb3",
      "name": "Albert Road W",
      "stopNumber": "2656",
      "latitude": 49.17848379,
      "longitude": -2.0916789,
      "shelter": false
    },
    {
      "id": "57ac1bdb-4dab-416f-80f2-aebaf77622fb",
      "name": "Hautes Croix Store N",
      "stopNumber": "4563",
      "latitude": 49.2393005,
      "longitude": -2.11144583,
      "shelter": false
    },
    {
      "id": "5884a11f-d25d-4295-8f74-f7e45d75b544",
      "name": "Rue de St Clement S",
      "stopNumber": "3486",
      "latitude": 49.21183924,
      "longitude": -2.18079389,
      "shelter": false
    },
    {
      "id": "58f04576-3ece-4f16-8e72-3ae28b80868d",
      "name": "Fort William S",
      "stopNumber": "2676",
      "latitude": 49.19498622,
      "longitude": -2.03314145,
      "shelter": false
    },
    {
      "id": "59ee1d68-fbf9-4419-91ac-e538a9105869",
      "name": "La Rocque Church S",
      "stopNumber": "3425",
      "latitude": 49.17295492,
      "longitude": -2.03100007,
      "shelter": false
    },
    {
      "id": "5a62412f-ebe4-412d-a66c-51c1467223e1",
      "name": "St Clements Church",
      "stopNumber": "2469",
      "latitude": 49.17369281,
      "longitude": -2.05595246,
      "shelter": false
    },
    {
      "id": "5aa13f41-8cc9-4b84-9daf-bf5927bf8212",
      "name": "Jersey Pearl N",
      "stopNumber": "2825",
      "latitude": 49.23100454,
      "longitude": -2.23366463,
      "shelter": false
    },
    {
      "id": "5af25d1e-2e59-46fd-9d92-c9306c9a9b41",
      "name": "Le Geyt Street",
      "stopNumber": "4657",
      "latitude": 49.18637664,
      "longitude": -2.10723102,
      "shelter": false
    },
    {
      "id": "5b0e916e-65f6-4b9f-b0df-8fdba522c4c5",
      "name": "Jersey Post N",
      "stopNumber": "4364",
      "latitude": 49.18084569,
      "longitude": -2.08126318,
      "shelter": false
    },
    {
      "id": "5b465c46-2ec7-430a-87e3-dfa0bcf24d22",
      "name": "Le Vier Mont W",
      "stopNumber": "3869",
      "latitude": 49.1814246,
      "longitude": -2.07047085,
      "shelter": false
    },
    {
      "id": "5bdad1ee-f71d-4692-85a1-7cc2ee078e7c",
      "name": "Beaumont E",
      "stopNumber": "2378",
      "latitude": 49.19666122,
      "longitude": -2.15760757,
      "shelter": false
    },
    {
      "id": "5cbaaa35-a7c6-4fe8-b669-fbd9dc043e28",
      "name": "Hameau de la Mer E",
      "stopNumber": "2765",
      "latitude": 49.16682833,
      "longitude": -2.03961096,
      "shelter": true
    },
    {
      "id": "5cd8bc04-6ca0-4fcb-b1e1-3c9d76ae9a99",
      "name": "Rue du Boulay N",
      "stopNumber": "4275",
      "latitude": 49.2349442,
      "longitude": -2.08570946,
      "shelter": false
    },
    {
      "id": "5cf21ad8-9495-4871-bb97-f67a51ccf320",
      "name": "La Rocque Harbour S",
      "stopNumber": "2898",
      "latitude": 49.16537617,
      "longitude": -2.03190526,
      "shelter": false
    },
    {
      "id": "5d009898-f66a-4537-99cd-f45e57458848",
      "name": "Hautmont Estate S",
      "stopNumber": "2796",
      "latitude": 49.18740314,
      "longitude": -2.09239215,
      "shelter": true
    },
    {
      "id": "5d1b0a04-05f6-42c5-8428-c0509c6ee2b1",
      "name": "Castle Green N",
      "stopNumber": "3467",
      "latitude": 49.20056121,
      "longitude": -2.02082941,
      "shelter": false
    },
    {
      "id": "5d7b2244-d1ac-4138-bd3d-887af0900fb7",
      "name": "Chasse Brunet E",
      "stopNumber": "2547",
      "latitude": 49.19750728,
      "longitude": -2.08474302,
      "shelter": false
    },
    {
      "id": "5d93d576-2f03-4715-b82c-1442bfd6af6c",
      "name": "West Park Shelter",
      "stopNumber": "3976",
      "latitude": 49.18908247,
      "longitude": -2.11853275,
      "shelter": true
    },
    {
      "id": "5dec98bc-14cb-4781-a6f1-194b1978a956",
      "name": "Mont Mado W",
      "stopNumber": "3462",
      "latitude": 49.24539369,
      "longitude": -2.12505748,
      "shelter": false
    },
    {
      "id": "5f23d6ef-3f1f-49af-9968-8e51e527c0ed",
      "name": "Plemont Bay",
      "stopNumber": "3548",
      "latitude": 49.25573191,
      "longitude": -2.22688462,
      "shelter": false
    },
    {
      "id": "5fb4454b-73ed-4a22-aa87-c8d6e68fd975",
      "name": "La Maison Slipway S",
      "stopNumber": "3256",
      "latitude": 49.21849171,
      "longitude": -2.02989352,
      "shelter": false
    },
    {
      "id": "605e5356-db63-455b-8c70-05d7329b14d2",
      "name": "Georgetown Road W",
      "stopNumber": "2654",
      "latitude": 49.17892379,
      "longitude": -2.09276728,
      "shelter": false
    },
    {
      "id": "605fe6c8-7bc0-489f-89c0-28a915681be6",
      "name": "Charles Street",
      "stopNumber": "4676",
      "latitude": 49.18561851,
      "longitude": -2.10231742,
      "shelter": false
    },
    {
      "id": "6110cf5a-a6d1-438b-b2e4-b6f3e2bcced5",
      "name": "St Catherines Wood N",
      "stopNumber": "3754",
      "latitude": 49.21733651,
      "longitude": -2.03129002,
      "shelter": false
    },
    {
      "id": "612f6706-2224-4fd6-857b-e991c39ecc7c",
      "name": "Le Hocq Slipway E",
      "stopNumber": "2954",
      "latitude": 49.16734725,
      "longitude": -2.06231347,
      "shelter": false
    },
    {
      "id": "612f7046-4c14-4aac-9426-c9d4272e2db6",
      "name": "La Pulente N",
      "stopNumber": "3579",
      "latitude": 49.18853486,
      "longitude": -2.22964143,
      "shelter": false
    },
    {
      "id": "61a176ca-837b-41c2-aec5-8ed40c031bc5",
      "name": "Clos de Noirmont",
      "stopNumber": "2528",
      "latitude": 49.1830871,
      "longitude": -2.17840545,
      "shelter": false
    },
    {
      "id": "61f94837-f2e2-4476-bf34-4fe3769fddd6",
      "name": "Le Saie S",
      "stopNumber": "4243",
      "latitude": 49.23393813,
      "longitude": -2.03867423,
      "shelter": false
    },
    {
      "id": "6218d457-8a94-4b65-a33a-b23091e30388",
      "name": "St Peters School",
      "stopNumber": "4353",
      "latitude": 49.21248676,
      "longitude": -2.18497603,
      "shelter": false
    },
    {
      "id": "624a23e4-838c-42ee-ba29-35730cc1d602",
      "name": "Fremont Perle N",
      "stopNumber": "3242",
      "latitude": 49.24493207,
      "longitude": -2.13437447,
      "shelter": false
    },
    {
      "id": "62646624-189f-49c0-b39e-411dc5df59b3",
      "name": "Betchet es Cats E",
      "stopNumber": "3237",
      "latitude": 49.24665669,
      "longitude": -2.11162768,
      "shelter": false
    },
    {
      "id": "627a28e3-1239-4f41-ac52-2aedac0c6778",
      "name": "Bellozanne Road",
      "stopNumber": "2343",
      "latitude": 49.19295404,
      "longitude": -2.12482476,
      "shelter": false
    },
    {
      "id": "62b2b1ae-9920-425d-bf21-feea35831198",
      "name": "St Matthews Church E",
      "stopNumber": "3797",
      "latitude": 49.19850525,
      "longitude": -2.14268801,
      "shelter": false
    },
    {
      "id": "62bff4cd-e9ea-4f78-97f1-63824dfc0b97",
      "name": "Rue des Croix E",
      "stopNumber": "4576",
      "latitude": 49.23649875,
      "longitude": -2.09327854,
      "shelter": false
    },
    {
      "id": "62c84b40-222f-4503-be1e-ed26c2fb4f43",
      "name": "Rue du Pont",
      "stopNumber": "3675",
      "latitude": 49.21628478,
      "longitude": -2.0750428,
      "shelter": false
    },
    {
      "id": "631c9dd7-4dc1-4703-a343-25cc5e75ed21",
      "name": "Bus Station Stand B",
      "stopNumber": "4524",
      "latitude": 49.18356361,
      "longitude": -2.11029578,
      "shelter": false
    },
    {
      "id": "640721f9-222a-4f57-b85c-a90a4c88d108",
      "name": "Ruette de Faldouet W",
      "stopNumber": "3736",
      "latitude": 49.20368396,
      "longitude": -2.03315077,
      "shelter": false
    },
    {
      "id": "642437ea-88b2-4fc9-9d30-894073f50611",
      "name": "Trinity School N",
      "stopNumber": "3547",
      "latitude": 49.22885398,
      "longitude": -2.09351037,
      "shelter": false
    },
    {
      "id": "6498833a-62e3-40db-8071-fb4f14bc3f53",
      "name": "Le Braye S",
      "stopNumber": "2938",
      "latitude": 49.19802183,
      "longitude": -2.22376429,
      "shelter": false
    },
    {
      "id": "64eecc87-517b-4638-8062-7aa66a1f7a70",
      "name": "Clos du Rivage S",
      "stopNumber": "2684",
      "latitude": 49.19764454,
      "longitude": -2.02863984,
      "shelter": true
    },
    {
      "id": "651713b0-721d-4cb5-8690-f43d64971e5d",
      "name": "Clarke Avenue",
      "stopNumber": "2523",
      "latitude": 49.1988702,
      "longitude": -2.11425706,
      "shelter": true
    },
    {
      "id": "651e1847-d7d4-41b3-98fe-fed94da6888a",
      "name": "Trinity Arms W",
      "stopNumber": "3927",
      "latitude": 49.23291155,
      "longitude": -2.08949334,
      "shelter": true
    },
    {
      "id": "6535787d-fecc-4d16-adad-d4636fd0fd36",
      "name": "Longueville Court E",
      "stopNumber": "3265",
      "latitude": 49.18264097,
      "longitude": -2.07470933,
      "shelter": false
    },
    {
      "id": "6558d902-8a2a-42fb-a640-7c57c6550474",
      "name": "Albert Place N",
      "stopNumber": "2329",
      "latitude": 49.18232903,
      "longitude": -2.11341832,
      "shelter": false
    },
    {
      "id": "65b9be57-b53a-4379-9b13-8c49117b9b67",
      "name": "Grands Vaux Court N",
      "stopNumber": "2693",
      "latitude": 49.19747569,
      "longitude": -2.09579903,
      "shelter": false
    },
    {
      "id": "66305b1c-9201-4a74-aef1-f68eb304236c",
      "name": "Moulin de Quetivel S",
      "stopNumber": "3734",
      "latitude": 49.20878228,
      "longitude": -2.16095064,
      "shelter": false
    },
    {
      "id": "666dfc72-3410-48e0-ae61-ba2333cdafc1",
      "name": "Bagatelle Parade S",
      "stopNumber": "3267",
      "latitude": 49.19637443,
      "longitude": -2.08252819,
      "shelter": false
    },
    {
      "id": "669b8cff-591c-4ec7-904c-a8b51d43f04d",
      "name": "St Ouens Village S",
      "stopNumber": "3826",
      "latitude": 49.23280612,
      "longitude": -2.20247819,
      "shelter": true
    },
    {
      "id": "66e0031f-9bb5-48e9-8713-18003158ea44",
      "name": "Coastlands Avenue W",
      "stopNumber": "3954",
      "latitude": 49.1765623,
      "longitude": -2.09226336,
      "shelter": false
    },
    {
      "id": "66e12ae1-e1de-4638-af22-961293516021",
      "name": "St Ouens Village N",
      "stopNumber": "3823",
      "latitude": 49.23297324,
      "longitude": -2.20266083,
      "shelter": true
    },
    {
      "id": "67354228-0690-49ad-8184-d8ed2861799d",
      "name": "Millbrook W",
      "stopNumber": "3692",
      "latitude": 49.19779221,
      "longitude": -2.13507372,
      "shelter": false
    },
    {
      "id": "675431d3-9348-44ba-97de-f37ff5bdc821",
      "name": "Haute Tombette N",
      "stopNumber": "2756",
      "latitude": 49.24047379,
      "longitude": -2.1644122,
      "shelter": false
    },
    {
      "id": "67bac814-a479-48b9-ab9b-868481e78ede",
      "name": "Grouville Arsenal E",
      "stopNumber": "2739",
      "latitude": 49.18142258,
      "longitude": -2.05930849,
      "shelter": false
    },
    {
      "id": "67f95344-43b1-4623-8ec2-2d09e25c314f",
      "name": "Beaumont W",
      "stopNumber": "2748",
      "latitude": 49.19657206,
      "longitude": -2.15735593,
      "shelter": false
    },
    {
      "id": "686f55dc-2a7c-4b4e-95e1-326c5e23ad8d",
      "name": "Pomona Road S",
      "stopNumber": "3562",
      "latitude": 49.1902963,
      "longitude": -2.10976429,
      "shelter": false
    },
    {
      "id": "6946465d-b572-4ec9-8fa5-d802a209f30e",
      "name": "Longbeach S",
      "stopNumber": "3268",
      "latitude": 49.19614283,
      "longitude": -2.03128954,
      "shelter": true
    },
    {
      "id": "6964efdd-a9f8-419b-9de3-78f92d26ca53",
      "name": "La Hougue Bie W",
      "stopNumber": "2486",
      "latitude": 49.20094026,
      "longitude": -2.06383368,
      "shelter": false
    },
    {
      "id": "697bd97d-f9e0-4e7e-a9d1-79313cd4992e",
      "name": "La Blinerie",
      "stopNumber": "2837",
      "latitude": 49.17212353,
      "longitude": -2.07414289,
      "shelter": false
    },
    {
      "id": "69cf89e1-bd07-4231-b6e3-80a12174f19f",
      "name": "Greve de Lecq",
      "stopNumber": "2736",
      "latitude": 49.24584094,
      "longitude": -2.19995611,
      "shelter": false
    },
    {
      "id": "69e8c9bd-11b6-437a-8cc1-c7a7bdd8b36a",
      "name": "La Moye Garage N",
      "stopNumber": "2868",
      "latitude": 49.18558669,
      "longitude": -2.21778516,
      "shelter": false
    },
    {
      "id": "6a62403f-124e-485c-a7e5-7ac0d1cb3218",
      "name": "Rue des Brulees S",
      "stopNumber": "2983",
      "latitude": 49.2256925,
      "longitude": -2.09357883,
      "shelter": false
    },
    {
      "id": "6a699429-1150-400a-88c4-8471ba8c3863",
      "name": "St Saviours Church S",
      "stopNumber": "3842",
      "latitude": 49.19492705,
      "longitude": -2.09082958,
      "shelter": false
    },
    {
      "id": "6a7350ac-61c2-4636-82e7-9d5f92e12397",
      "name": "Clos Orange S",
      "stopNumber": "2653",
      "latitude": 49.18676418,
      "longitude": -2.21678987,
      "shelter": false
    },
    {
      "id": "6aace129-c030-4745-8179-c18021a2b95d",
      "name": "Les Vaux Larrons",
      "stopNumber": "4397",
      "latitude": 49.18066609,
      "longitude": -2.23137487,
      "shelter": false
    },
    {
      "id": "6bdf4942-138b-4c63-b5c9-06dcda8ac443",
      "name": "Rue de Bel Air E",
      "stopNumber": "2725",
      "latitude": 49.23613736,
      "longitude": -2.16474679,
      "shelter": false
    },
    {
      "id": "6c6198ec-ebbc-4ffe-b544-b2f6dd4b4a31",
      "name": "La Preference",
      "stopNumber": "2893",
      "latitude": 49.2134385,
      "longitude": -2.05908781,
      "shelter": false
    },
    {
      "id": "6d3f709f-1a24-498a-acd0-541693a971e0",
      "name": "West View S",
      "stopNumber": "3982",
      "latitude": 49.23762802,
      "longitude": -2.16774342,
      "shelter": false
    },
    {
      "id": "6d46347a-8a37-4ef3-9b1c-8bae4a69ed4b",
      "name": "Sion Lodge N",
      "stopNumber": "2435",
      "latitude": 49.21825818,
      "longitude": -2.11457869,
      "shelter": false
    },
    {
      "id": "6d488307-f697-4259-abaf-36e1cfe3bc84",
      "name": "Lime Grove E",
      "stopNumber": "4285",
      "latitude": 49.1799799,
      "longitude": -2.10275525,
      "shelter": false
    },
    {
      "id": "6d5b0be2-ab08-4a1b-b7f6-66e2cd05684a",
      "name": "Hotel La Place N",
      "stopNumber": "2876",
      "latitude": 49.19580083,
      "longitude": -2.17724222,
      "shelter": false
    },
    {
      "id": "6d96a28f-5370-4261-8555-c4a98c66b98b",
      "name": "Greve d'Azette E",
      "stopNumber": "2342",
      "latitude": 49.1694023,
      "longitude": -2.08471517,
      "shelter": false
    },
    {
      "id": "6db05f75-61ea-4ea8-b8a5-184c4ec7682a",
      "name": "Ouaisne Junction N",
      "stopNumber": "3497",
      "latitude": 49.17713355,
      "longitude": -2.17320699,
      "shelter": false
    },
    {
      "id": "6db87a9d-7bf5-409b-b329-1a0cdb7c4506",
      "name": "Rue du Ponterrin",
      "stopNumber": "3487",
      "latitude": 49.21246585,
      "longitude": -2.08197845,
      "shelter": false
    },
    {
      "id": "6f245bf2-2d76-4620-b56b-19730177fc50",
      "name": "Rose Farm W",
      "stopNumber": "3239",
      "latitude": 49.18442281,
      "longitude": -2.18244012,
      "shelter": false
    },
    {
      "id": "6f368287-3380-4798-8d02-91fc6417917c",
      "name": "Carrefour Selous W",
      "stopNumber": "2478",
      "latitude": 49.22699962,
      "longitude": -2.14610647,
      "shelter": false
    },
    {
      "id": "6f9d2288-bf37-47af-b58f-650ae1f55036",
      "name": "Ransoms N",
      "stopNumber": "3589",
      "latitude": 49.20546247,
      "longitude": -2.03240049,
      "shelter": false
    },
    {
      "id": "6fb81f3d-ba4d-4d5c-9ddc-0a805a55c0ea",
      "name": "Mont Cambrai S",
      "stopNumber": "3984",
      "latitude": 49.20611778,
      "longitude": -2.14274371,
      "shelter": false
    },
    {
      "id": "6ffe0c0d-b7f5-43bf-b9ae-c773c5296ae3",
      "name": "La Croix Messervy E",
      "stopNumber": "3738",
      "latitude": 49.21234303,
      "longitude": -2.03867145,
      "shelter": false
    },
    {
      "id": "70e23e62-c245-4893-bd8d-6eb437f55ee7",
      "name": "Priory Farm",
      "stopNumber": "2952",
      "latitude": 49.17177728,
      "longitude": -2.06500727,
      "shelter": false
    },
    {
      "id": "70e2e630-8f51-4708-8fcd-92d06e2eeec8",
      "name": "St Peters House N",
      "stopNumber": "3832",
      "latitude": 49.22093451,
      "longitude": -2.18294094,
      "shelter": false
    },
    {
      "id": "711ee0d2-dc01-4da1-9c93-2b30d484803f",
      "name": "The Cedars",
      "stopNumber": "3942",
      "latitude": 49.18003426,
      "longitude": -2.10391278,
      "shelter": false
    },
    {
      "id": "71497dd0-0eca-4fe9-b6bb-62f9f1d3b036",
      "name": "Hastings Road",
      "stopNumber": "4385",
      "latitude": 49.17975548,
      "longitude": -2.09858987,
      "shelter": false
    },
    {
      "id": "714c4d61-6f64-4c87-b02f-286738fc3de0",
      "name": "Rue Cyril Mauger",
      "stopNumber": "4252",
      "latitude": 49.20292777,
      "longitude": -2.12838515,
      "shelter": false
    },
    {
      "id": "71eb26cf-e79a-429f-8a48-34f0531f1c01",
      "name": "Queens Valley E",
      "stopNumber": "3585",
      "latitude": 49.20281522,
      "longitude": -2.04134258,
      "shelter": false
    },
    {
      "id": "71fbf688-bb48-41fc-96f5-6e0513449062",
      "name": "Route des Landes",
      "stopNumber": "3653",
      "latitude": 49.24652193,
      "longitude": -2.23813757,
      "shelter": false
    },
    {
      "id": "726c47e2-6807-4842-af49-54009c9adc3d",
      "name": "La Chesnee Farm S",
      "stopNumber": "2845",
      "latitude": 49.22231618,
      "longitude": -2.09487686,
      "shelter": false
    },
    {
      "id": "728228ac-3a7d-4152-ba6c-b9d145591b50",
      "name": "L'Enclos",
      "stopNumber": "2932",
      "latitude": 49.21357458,
      "longitude": -2.07527237,
      "shelter": false
    },
    {
      "id": "729e3142-e72b-4187-b3e5-5078967d7bdc",
      "name": "La Croix Messervy W",
      "stopNumber": "3298",
      "latitude": 49.21262911,
      "longitude": -2.03942055,
      "shelter": false
    },
    {
      "id": "72e8be90-e7c0-4669-bfed-c4327f9d7244",
      "name": "Tesson Chapel W",
      "stopNumber": "3862",
      "latitude": 49.20467496,
      "longitude": -2.1549291,
      "shelter": false
    },
    {
      "id": "7331f315-5568-4143-81c5-b3e22dd90a90",
      "name": "Five Mile Avenue N",
      "stopNumber": "4232",
      "latitude": 49.22637408,
      "longitude": -2.23048414,
      "shelter": false
    },
    {
      "id": "7427bb52-a95f-42de-8478-19278ff386e8",
      "name": "Rue Militaire N",
      "stopNumber": "2393",
      "latitude": 49.23958668,
      "longitude": -2.11735423,
      "shelter": false
    },
    {
      "id": "745df3e1-8e86-409a-8a33-c97a5267d5a5",
      "name": "The Union Inn",
      "stopNumber": "3945",
      "latitude": 49.21165186,
      "longitude": -2.11316862,
      "shelter": false
    },
    {
      "id": "74687347-e667-4588-a9a7-495383247204",
      "name": "Trinity Arms E",
      "stopNumber": "4645",
      "latitude": 49.23307946,
      "longitude": -2.09006534,
      "shelter": false
    },
    {
      "id": "74d82fac-e88c-4723-82d4-d696a70a613c",
      "name": "Rue de la Houguette",
      "stopNumber": "2497",
      "latitude": 49.17260471,
      "longitude": -2.06008636,
      "shelter": false
    },
    {
      "id": "753d1349-9839-478f-975e-416f35dfeaae",
      "name": "The Royal E",
      "stopNumber": "3875",
      "latitude": 49.21780098,
      "longitude": -2.05025938,
      "shelter": true
    },
    {
      "id": "75582747-0724-47fb-b770-4607fac69f55",
      "name": "St Marys Arsenal",
      "stopNumber": "4293",
      "latitude": 49.23442399,
      "longitude": -2.17805998,
      "shelter": false
    },
    {
      "id": "756aefcb-e97e-4de3-ae37-7ff5480f7bc1",
      "name": "Landscape Grove S",
      "stopNumber": "4256",
      "latitude": 49.20109248,
      "longitude": -2.12936587,
      "shelter": false
    },
    {
      "id": "75707bf8-e76e-42e6-985d-5c7e6b3edcf0",
      "name": "York Farm W",
      "stopNumber": "3846",
      "latitude": 49.19559237,
      "longitude": -2.15982194,
      "shelter": true
    },
    {
      "id": "757216dd-f4ac-4ade-9fdc-280dd6c42b76",
      "name": "Rectory Close",
      "stopNumber": "3595",
      "latitude": 49.17183084,
      "longitude": -2.06492434,
      "shelter": false
    },
    {
      "id": "75b75563-1408-41be-bb70-048f3d12602b",
      "name": "Haute Tombette S",
      "stopNumber": "2854",
      "latitude": 49.24054933,
      "longitude": -2.16427236,
      "shelter": false
    },
    {
      "id": "7677f84a-41fe-4ee1-8bc6-64a38e6d9978",
      "name": "Chasse Brunet W",
      "stopNumber": "2489",
      "latitude": 49.19752492,
      "longitude": -2.08449108,
      "shelter": false
    },
    {
      "id": "768a616d-29d2-4c98-8256-f346d8f6a9f5",
      "name": "Rue de la Preterie",
      "stopNumber": "2782",
      "latitude": 49.23367869,
      "longitude": -2.18641284,
      "shelter": false
    },
    {
      "id": "772623bb-40d7-4205-b2b5-8aac7315acf6",
      "name": "St Georges Church",
      "stopNumber": "4346",
      "latitude": 49.24730637,
      "longitude": -2.22695698,
      "shelter": false
    },
    {
      "id": "772e7701-fc44-403a-bead-d638e332f1f6",
      "name": "Ryburn Avenue N",
      "stopNumber": "3594",
      "latitude": 49.17595349,
      "longitude": -2.08802491,
      "shelter": false
    },
    {
      "id": "7769a8a2-437a-4cac-a9eb-df70bcc7cafb",
      "name": "Fosse a l'Ecrivain",
      "stopNumber": "2643",
      "latitude": 49.20476077,
      "longitude": -2.0711532,
      "shelter": false
    },
    {
      "id": "77922e30-08b2-487b-b97b-bab7355a449a",
      "name": "Petites Hinguettes",
      "stopNumber": "2962",
      "latitude": 49.1680449,
      "longitude": -2.07928066,
      "shelter": false
    },
    {
      "id": "77a26a07-5c48-4413-b288-a2fab56126ba",
      "name": "Maufant Lodge",
      "stopNumber": "3294",
      "latitude": 49.20965909,
      "longitude": -2.06560596,
      "shelter": false
    },
    {
      "id": "77db555f-139b-4932-9e14-27288be06fac",
      "name": "Rue Militaire S",
      "stopNumber": "2389",
      "latitude": 49.23951289,
      "longitude": -2.11730652,
      "shelter": false
    },
    {
      "id": "7819efa4-fc9e-414a-afd5-a62c0af42c0c",
      "name": "Abbotsmount",
      "stopNumber": "2539",
      "latitude": 49.19616884,
      "longitude": -2.11370982,
      "shelter": true
    },
    {
      "id": "78d3d881-803e-407f-882f-bd01a2377272",
      "name": "Croix au Lion S",
      "stopNumber": "2562",
      "latitude": 49.2174871,
      "longitude": -2.18596518,
      "shelter": true
    },
    {
      "id": "797d4b9c-47a6-4362-a24c-72d89ebad8d8",
      "name": "Green Farm E",
      "stopNumber": "2524",
      "latitude": 49.24565032,
      "longitude": -2.12974803,
      "shelter": false
    },
    {
      "id": "7a08e7de-0e77-4fb6-9956-d3b8385cef5b",
      "name": "Bellozanne Avenue",
      "stopNumber": "2394",
      "latitude": 49.19273802,
      "longitude": -2.12420734,
      "shelter": true
    },
    {
      "id": "7afb774c-a2cc-4c48-8ab5-557f9b63e985",
      "name": "Anne Port Slipway N",
      "stopNumber": "4345",
      "latitude": 49.20528313,
      "longitude": -2.02269253,
      "shelter": false
    },
    {
      "id": "7b3b9e0d-9ff7-4c6f-9e46-990ea54c5041",
      "name": "St Marks Church N",
      "stopNumber": "3769",
      "latitude": 49.18997796,
      "longitude": -2.10339506,
      "shelter": false
    },
    {
      "id": "7b67390b-4b87-439b-8cba-1ac72f8b0aa0",
      "name": "Woodbine Store",
      "stopNumber": "4382",
      "latitude": 49.18412474,
      "longitude": -2.18034975,
      "shelter": false
    },
    {
      "id": "7b9ba0a0-5057-41a4-a45e-196ab08dea6f",
      "name": "Five Oaks S",
      "stopNumber": "2635",
      "latitude": 49.19874068,
      "longitude": -2.0802476,
      "shelter": false
    },
    {
      "id": "7bcd5a0f-9c27-43b1-b091-73ab9b4a4626",
      "name": "St Andrews Park E",
      "stopNumber": "3739",
      "latitude": 49.19575671,
      "longitude": -2.13137015,
      "shelter": true
    },
    {
      "id": "7c0e6bd1-2342-4268-bdc0-9eb282b590d8",
      "name": "St Aubin N",
      "stopNumber": "3742",
      "latitude": 49.18790172,
      "longitude": -2.1701276,
      "shelter": true
    },
    {
      "id": "7c3100e3-e9fd-40c9-be2f-b70c4ed26a9d",
      "name": "Carrefour Selous S",
      "stopNumber": "4624",
      "latitude": 49.22749248,
      "longitude": -2.14538586,
      "shelter": false
    },
    {
      "id": "7c7952ff-3423-4dfb-9361-d95909ccec88",
      "name": "Les Monts W",
      "stopNumber": "3939",
      "latitude": 49.2019521,
      "longitude": -2.03701596,
      "shelter": false
    },
    {
      "id": "7cb4abff-62c6-4474-bd83-2474d7edb628",
      "name": "La Ruette N",
      "stopNumber": "3849",
      "latitude": 49.23536427,
      "longitude": -2.16121063,
      "shelter": false
    },
    {
      "id": "7d1424f5-c47f-40e0-b2c5-611619cf0b10",
      "name": "Castle Street",
      "stopNumber": "2594",
      "latitude": 49.1846389,
      "longitude": -2.11166341,
      "shelter": false
    },
    {
      "id": "7d2a57ed-a099-421b-8465-504ab129618b",
      "name": "Kempt Tower N",
      "stopNumber": "2828",
      "latitude": 49.21984626,
      "longitude": -2.22632485,
      "shelter": false
    },
    {
      "id": "7d7cecea-51c6-4463-b57b-18569472a6a9",
      "name": "Route des Pelles N",
      "stopNumber": "3632",
      "latitude": 49.2292002,
      "longitude": -2.04407909,
      "shelter": false
    },
    {
      "id": "7da1a52b-54a4-4baa-a35a-d88079987e3f",
      "name": "Les Perrons",
      "stopNumber": "3542",
      "latitude": 49.24506481,
      "longitude": -2.22916909,
      "shelter": false
    },
    {
      "id": "7dee09d0-7414-4429-83e2-fb1bdf82f958",
      "name": "St Brelades Bay W",
      "stopNumber": "2463",
      "latitude": 49.18552576,
      "longitude": -2.19955947,
      "shelter": false
    },
    {
      "id": "7fa5361b-5ace-455b-8b35-45b6c09f552c",
      "name": "St Brelade Church W",
      "stopNumber": "3748",
      "latitude": 49.18502286,
      "longitude": -2.20414446,
      "shelter": false
    },
    {
      "id": "804e1070-5340-4399-a431-edaf7a960106",
      "name": "Rue des Buttes S",
      "stopNumber": "3676",
      "latitude": 49.21537008,
      "longitude": -2.05442557,
      "shelter": false
    },
    {
      "id": "81283f2f-1219-40b7-bcaa-c2c7edf0bf21",
      "name": "Les Cabots E",
      "stopNumber": "2467",
      "latitude": 49.18076837,
      "longitude": -2.06678467,
      "shelter": false
    },
    {
      "id": "8166503c-f6a9-46be-8ad0-fe94d17dc8b3",
      "name": "La Hacienda",
      "stopNumber": "2857",
      "latitude": 49.20143815,
      "longitude": -2.01890139,
      "shelter": false
    },
    {
      "id": "81995cda-4a6f-4071-a960-f0a0df23a7b7",
      "name": "Roche du Lion",
      "stopNumber": "3625",
      "latitude": 49.20156195,
      "longitude": -2.01872946,
      "shelter": false
    },
    {
      "id": "81ad8aaf-26dd-48d5-993a-c1786ab6e965",
      "name": "St Lawrence Church S",
      "stopNumber": "2459",
      "latitude": 49.2136851,
      "longitude": -2.14124731,
      "shelter": false
    },
    {
      "id": "822a8dee-eead-48d0-8545-326bdf6b5bd0",
      "name": "Rue du Manoir",
      "stopNumber": "3285",
      "latitude": 49.22712446,
      "longitude": -2.19816482,
      "shelter": false
    },
    {
      "id": "82d6e75c-475d-4097-80a7-be6ba2776d60",
      "name": "Hotel La Place S",
      "stopNumber": "3453",
      "latitude": 49.19596133,
      "longitude": -2.1771618,
      "shelter": false
    },
    {
      "id": "835c9035-67eb-4834-b6ba-4278d3ed5fb1",
      "name": "Trinity Church S",
      "stopNumber": "2787",
      "latitude": 49.23341361,
      "longitude": -2.09163819,
      "shelter": false
    },
    {
      "id": "8412febb-d887-4eab-b61a-c8ac4e3bb09c",
      "name": "Green Farm W",
      "stopNumber": "2698",
      "latitude": 49.24560017,
      "longitude": -2.12955887,
      "shelter": false
    },
    {
      "id": "841578f2-b3ac-4d66-ab76-600f5e9faca8",
      "name": "Travers Farm Lane S",
      "stopNumber": "3279",
      "latitude": 49.17983521,
      "longitude": -2.17531043,
      "shelter": false
    },
    {
      "id": "841e80e4-de93-4a44-994c-94f0b1f3ab9e",
      "name": "Rue des Vignes W",
      "stopNumber": "4359",
      "latitude": 49.20615745,
      "longitude": -2.17866853,
      "shelter": false
    },
    {
      "id": "84345be7-7801-4cf4-adf1-8b63b2ac6810",
      "name": "Clos des Pauvres",
      "stopNumber": "4629",
      "latitude": 49.24521177,
      "longitude": -2.16575848,
      "shelter": false
    },
    {
      "id": "8448852c-df9f-47ed-b125-a571f43937e6",
      "name": "Rozel Manor N",
      "stopNumber": "2974",
      "latitude": 49.22710425,
      "longitude": -2.04700329,
      "shelter": false
    },
    {
      "id": "844a8d4d-8891-4a9f-aebe-a703a896b1ab",
      "name": "St Marys Garage W",
      "stopNumber": "3793",
      "latitude": 49.2353097,
      "longitude": -2.16807429,
      "shelter": false
    },
    {
      "id": "8462f566-10dd-4172-9826-6413dab32b86",
      "name": "Les Varines W",
      "stopNumber": "3953",
      "latitude": 49.18250238,
      "longitude": -2.08376698,
      "shelter": true
    },
    {
      "id": "84aaa07e-344c-49fa-8009-975670249cec",
      "name": "St Clement Gardens W",
      "stopNumber": "3757",
      "latitude": 49.17495485,
      "longitude": -2.08576143,
      "shelter": false
    },
    {
      "id": "8535e2df-02f7-45e6-9ce8-0392e6629c49",
      "name": "Grosnez House",
      "stopNumber": "2738",
      "latitude": 49.2530508,
      "longitude": -2.23917739,
      "shelter": false
    },
    {
      "id": "8553127b-8705-4965-a231-0235e677fa80",
      "name": "Don Street",
      "stopNumber": "4658",
      "latitude": 49.18610339,
      "longitude": -2.10536796,
      "shelter": false
    },
    {
      "id": "85743d42-bd4f-4485-882e-6f5ac5885c60",
      "name": "Les Routeurs N",
      "stopNumber": "3238",
      "latitude": 49.20324126,
      "longitude": -2.07363569,
      "shelter": false
    },
    {
      "id": "85b901c7-c1a3-44e6-bb19-de54d6abf6cf",
      "name": "Sutton Court S",
      "stopNumber": "3983",
      "latitude": 49.20002545,
      "longitude": -2.09528562,
      "shelter": false
    },
    {
      "id": "85b92753-302d-4092-b3b1-255fcabfec4c",
      "name": "Moulin de Quetivel N",
      "stopNumber": "3469",
      "latitude": 49.20879358,
      "longitude": -2.16104503,
      "shelter": false
    },
    {
      "id": "86aa85d2-010f-4557-9223-425ae0018348",
      "name": "Paul Mill N",
      "stopNumber": "3532",
      "latitude": 49.20652664,
      "longitude": -2.08423316,
      "shelter": false
    },
    {
      "id": "86da56b2-4a9d-4362-881f-b1d1719bb299",
      "name": "Parcq du Rivage W",
      "stopNumber": "3429",
      "latitude": 49.19697774,
      "longitude": -2.15205708,
      "shelter": false
    },
    {
      "id": "87057f6c-512f-4918-abe3-be8c42dea39a",
      "name": "Manor Park Road",
      "stopNumber": "2568",
      "latitude": 49.19793771,
      "longitude": -2.10964039,
      "shelter": false
    },
    {
      "id": "8734a231-0a6f-4e02-8e24-50c01b89e28a",
      "name": "Castle View",
      "stopNumber": "2454",
      "latitude": 49.19032202,
      "longitude": -2.11712595,
      "shelter": false
    },
    {
      "id": "8773c258-a69c-4594-9c2a-3d0c44b57314",
      "name": "Rocque Bay W",
      "stopNumber": "2458",
      "latitude": 49.16660457,
      "longitude": -2.06965874,
      "shelter": false
    },
    {
      "id": "88440256-54ab-47ea-ae70-73893c6d25e5",
      "name": "Les Ruettes N",
      "stopNumber": "3693",
      "latitude": 49.23475385,
      "longitude": -2.11296156,
      "shelter": false
    },
    {
      "id": "8856223f-5084-42c8-b992-4797ca3487cb",
      "name": "Rue au Blancq E",
      "stopNumber": "3637",
      "latitude": 49.17189053,
      "longitude": -2.07147549,
      "shelter": false
    },