{
  "results": [
    {
      "id": "03d8bf66-e451-4a20-b3e5-96f8c1293f2c",
      "createdAt": "2024-07-01T13:01:56.000Z",
      "name": "La Folie Commercial Buildings St. Helier",
      "parish": "St. Helier",
      "latitude": 49.17793188,
      "longitude": -2.10985971,
      "owner": {
        "id": "62a13258-686c-456c-87f3-8a93ff735d35",
        "name": "Ports of Jersey"
      },
      "facilities": []
    },
    {
      "id": "0467c094-9037-49e0-9098-2e7feb25a459",
      "createdAt": "2024-07-01T13:01:56.000Z",
      "name": "Les Creux La Moye St. Brelade",
      "parish": "St. Brelade",
      "latitude": 49.185829,
      "longitude": -2.21379499,
      "owner": {
        "id": "6060f60d-17a1-49c8-aa4a-c268721a806a",
        "name": "Government of Jersey"
      },
      "facilities": [
        "DISABLED"
      ]
    },
    {
      "id": "0808451f-011c-4993-8163-486a09fae6d5",
      "createdAt": "2024-07-01T13:01:56.000Z",
      "name": "Bonne Nuit Les Charrieres de Bonne Nuit St. John",
      "parish": "St. John",
      "latitude": 49.25225901,
      "longitude": -2.12096186,
      "owner": {
        "id": "6060f60d-17a1-49c8-aa4a-c268721a806a",
        "name": "Government of Jersey"
      },
      "facilities": [
        "DISABLED"
      ]
    },
    {
      "id": "11c14a55-1212-4a1b-aaa7-6782e5945d92",
      "createdAt": "2024-07-01T13:01:55.000Z",
      "name": "Bouley Bay Les Charrieres de Boulay Trinity",
      "parish": "Trinity",
      "latitude": 49.238868,
      "longitude": -2.08166393,
      "owner": {
        "id": "6060f60d-17a1-49c8-aa4a-c268721a806a",
        "name": "Government of Jersey"
      },
      "facilities": [
        "BEACH_SHOWER"
      ]
    },
    {
      "id": "12aec285-85e8-49a5-9059-18b2731263cc",
      "createdAt": "2024-07-01T13:01:56.000Z",
      "name": "Coronation Park La Route de St. Aubin St. Lawrence",
      "parish": "St. Lawrence",
      "latitude": 49.19777913,
      "longitude": -2.14208321,
      "owner": {
        "id": "6060f60d-17a1-49c8-aa4a-c268721a806a",
        "name": "Government of Jersey"
      },
      "facilities": [
        "DISABLED"
      ]
    },
    {
      "id": "156d6d3a-f5bc-40dd-8f4c-3423df12cf0b",
      "createdAt": "2024-07-01T13:01:56.000Z",
      "name": "Plemont Bay La Route de Plemont St. Ouen",
      "parish": "St. Ouen",
      "latitude": 49.25651053,
      "longitude": -2.22911326,
      "owner": {
        "id": "6060f60d-17a1-49c8-aa4a-c268721a806a",
        "name": "Government of Jersey"
      },
      "facilities": [
        "DISABLED"
      ]
    },
    {
      "id": "186765f2-e931-483a-85d7-dbf33e8a9d84",
      "createdAt": "2024-07-01T13:01:56.000Z",
      "name": "Parade Gardens (PoSH) Gloucester Street St. Helier",
      "parish": "St. Helier",
      "latitude": 49.18767909,
      "longitude": -2.11069158,
      "owner": {
        "id": null,
        "name": null
      },
      "facilities": [
        "DISABLED"
      ]
    },
    {
      "id": "236598b9-c947-40f4-97ca-e49252c3a740",
      "createdAt": "2024-07-01T13:01:56.000Z",
      "name": "St. Aubin La Neuve Route St. Brelade",
      "parish": "St. Brelade",
      "latitude": 49.18774852,
      "longitude": -2.16919926,
      "owner": {
        "id": "6060f60d-17a1-49c8-aa4a-c268721a806a",
        "name": "Government of Jersey"
      },
      "facilities": [
        "DISABLED",
        "BABY_CHANGING"
      ]
    },
    {
      "id": "24a01a8c-12ae-4ec5-a133-23be5e9e0894",
      "createdAt": "2024-07-01T13:01:56.000Z",
      "name": "Gorey House Le Mont de Gouray St. Martin",
      "parish": "St. Martin",
      "latitude": 49.20000734,
      "longitude": -2.02135859,
      "owner": {
        "id": "52c49647-20f2-49f0-b9b6-a9ba49a13d03",
        "name": "Andium Homes"
      },
      "facilities": [
        "DISABLED"
      ]
    },
    {
      "id": "2500fe9c-4412-410e-8107-f2ffc14afc34",
      "createdAt": "2024-07-01T13:01:56.000Z",
      "name": "Millennium Town Park Tunnell Street St.Helier",
      "parish": "St. Helier",
      "latitude": 49.1874601,
      "longitude": -2.09970421,
      "owner": {
        "id": "6060f60d-17a1-49c8-aa4a-c268721a806a",
        "name": "Government of Jersey"
      },
      "facilities": [
        "DISABLED"
      ]
    },
    {
      "id": "2892d8d3-7a76-4b80-8bfa-f46e3274e399",
      "createdAt": "2024-07-01T13:01:55.000Z",
      "name": "Gorey Common Longbeach La Rue a Don Grouville",
      "parish": "Grouville",
      "latitude": 49.19618566,
      "longitude": -2.03066981,
      "owner": {
        "id": "6060f60d-17a1-49c8-aa4a-c268721a806a",
        "name": "Government of Jersey"
      },
      "facilities": [
        "BEACH_SHOWER",
        "DISABLED",
        "BABY_CHANGING"
      ]
    },
    {
      "id": "296ff3f3-38fd-4567-977e-dfc94b1ee6be",
      "createdAt": "2024-07-01T13:01:56.000Z",
      "name": "Howard Davis Park St. Clements Road St. Helier",
      "parish": "St. Helier",
      "latitude": 49.17985301,
      "longitude": -2.09828251,
      "owner": {
        "id": "6060f60d-17a1-49c8-aa4a-c268721a806a",
        "name": "Government of Jersey"
      },
      "facilities": [
        "DISABLED"
      ]
    },
    {
      "id": "2e4a5739-43ec-46df-8881-27a8da389cbe",
      "createdAt": "2024-07-01T13:01:56.000Z",
      "name": "Woodford Car Park La Route de la Baie St. Brelade",
      "parish": "St. Brelade",
      "latitude": 49.18579372,
      "longitude": -2.19885529,
      "owner": {
        "id": "6060f60d-17a1-49c8-aa4a-c268721a806a",
        "name": "Government of Jersey"
      },
      "facilities": [
        "BEACH_SHOWER",
        "DISABLED",
        "BABY_CHANGING"
      ]
    },
    {
      "id": "47aeb0f8-c721-45f3-be99-544ecf091211",
      "createdAt": "2024-07-01T13:01:56.000Z",
      "name": "Corbiere La Rue de la Corbiere St. Brelade",
      "parish": "St. Brelade",
      "latitude": 49.18103496,
      "longitude": -2.23892806,
      "owner": {
        "id": "6060f60d-17a1-49c8-aa4a-c268721a806a",
        "name": "Government of Jersey"
      },
      "facilities": [
        "GENDER_NEUTRAL",
        "DISABLED",
        "BABY_CHANGING"
      ]
    },
    {
      "id": "509985cc-a710-4d03-bed5-5f150b85db12",
      "createdAt": "2024-07-01T13:01:56.000Z",
      "name": "St. Brelade's Bay Promenade La Route de la Baie St. Brelade",
      "parish": "St. Brelade",
      "latitude": 49.1853255,
      "longitude": -2.20002067,
      "owner": {
        "id": "6060f60d-17a1-49c8-aa4a-c268721a806a",
        "name": "Government of Jersey"
      },
      "facilities": [
        "DISABLED",
        "BABY_CHANGING"
      ]
    },
    {
      "id": "5519dbaa-7375-4080-ba48-a68665e10c5d",
      "createdAt": "2024-07-01T13:01:56.000Z",
      "name": "Le Braye La Grande Route des Mielles St. Brelade",
      "parish": "St. Brelade",
      "latitude": 49.1988782,
      "longitude": -2.22376511,
      "owner": {
        "id": "6060f60d-17a1-49c8-aa4a-c268721a806a",
        "name": "Government of Jersey"
      },
      "facilities": [
        "DISABLED"
      ]
    },
    {
      "id": "605f608a-f0a2-4719-bfa2-a0ea323c6fcc",
      "createdAt": "2024-07-01T13:01:56.000Z",
      "name": "Les Laveurs La Route des Laveurs St. Ouen",
      "parish": "St. Ouen",
      "latitude": 49.23065492,
      "longitude": -2.23465773,
      "owner": {
        "id": "6060f60d-17a1-49c8-aa4a-c268721a806a",
        "name": "Government of Jersey"
      },
      "facilities": [
        "DISABLED",
        "BABY_CHANGING"
      ]
    },
    {
      "id": "60aa98ca-210d-4ab2-93f6-993b2de2d260",
      "createdAt": "2024-07-01T13:01:56.000Z",
      "name": "Archirondel La Route de la Cote Gorey Coast Road, St. Martin",
      "parish": "St. Martin",
      "latitude": 49.2116822,
      "longitude": -2.02511985,
      "owner": {
        "id": "6060f60d-17a1-49c8-aa4a-c268721a806a",
        "name": "Government of Jersey"
      },
      "facilities": [
        "BEACH_SHOWER",
        "DISABLED"
      ]
    },
    {
      "id": "63a431cf-9261-4372-bc37-0de820ae36a8",
      "createdAt": "2024-07-01T13:01:56.000Z",
      "name": "Sand Street MSCP Castle Street St. Helier",
      "parish": "St. Helier",
      "latitude": 49.18514846,
      "longitude": -2.11023603,
      "owner": {
        "id": "6060f60d-17a1-49c8-aa4a-c268721a806a",
        "name": "Government of Jersey"
      },
      "facilities": [
        "DISABLED",
        "BABY_CHANGING"
      ]
    },
    {
      "id": "6aa6dd28-adbf-4412-8e60-38c376027a63",
      "createdAt": "2024-07-01T13:01:56.000Z",
      "name": "Millbrook Victoria Avenue St. Lawrence",
      "parish": "St. Lawrence",
      "latitude": 49.19637192,
      "longitude": -2.13831586,
      "owner": {
        "id": "6060f60d-17a1-49c8-aa4a-c268721a806a",
        "name": "Government of Jersey"
      },
      "facilities": [
        "DISABLED"
      ]
    },
    {
      "id": "6da66403-84fa-4eaa-bfca-41a040c4e4c7",
      "createdAt": "2024-07-01T13:01:56.000Z",
      "name": "La Rocque Harbour La Grande Route des Sablons Grouville",
      "parish": "Grouville",
      "latitude": 49.16442032,
      "longitude": -2.03345146,
      "owner": {
        "id": "62a13258-686c-456c-87f3-8a93ff735d35",
        "name": "Ports of Jersey"
      },
      "facilities": [
        "BEACH_SHOWER",
        "DISABLED"
      ]
    },
    {
      "id": "7014bc81-6700-4efd-a632-6a4ce4bd223b",
      "createdAt": "2024-07-01T13:01:56.000Z",
      "name": "Midbay La Route de la Baie St. Brelade",
      "parish": "St. Brelade",
      "latitude": 49.18536403,
      "longitude": -2.19528821,
      "owner": {
        "id": "6060f60d-17a1-49c8-aa4a-c268721a806a",
        "name": "Government of Jersey"
      },
      "facilities": []
    },
    {
      "id": "7371c28b-77c5-4d2c-8932-220aa0306b54",
      "createdAt": "2024-07-01T13:01:56.000Z",
      "name": "Gunsite Slipway Beaumont La Route de la Haule St. Peter",
      "parish": "St. Peter",
      "latitude": 49.19611367,
      "longitude": -2.15759756,
      "owner": {
        "id": "6060f60d-17a1-49c8-aa4a-c268721a806a",
        "name": "Government of Jersey"
      },
      "facilities": [
        "DISABLED"
      ]
    },
    {
      "id": "7a25dbb3-db9a-40b1-932e-85bab28457ae",
      "createdAt": "2024-07-01T13:01:56.000Z",
      "name": "Minden Place MSCP Minden Place St. Helier",
      "parish": "St. Helier",
      "latitude": 49.1860974,
      "longitude": -2.10311061,
      "owner": {
        "id": "6060f60d-17a1-49c8-aa4a-c268721a806a",
        "name": "Government of Jersey"
      },
      "facilities": [
        "DISABLED"
      ]
    },
    {
      "id": "7e26678b-54fa-4996-8fcd-cc41aa9df655",
      "createdAt": "2024-07-01T13:01:56.000Z",
      "name": "Green Street (PoSH) Green Street St. Helier",
      "parish": "St. Helier",
      "latitude": 49.18134853,
      "longitude": -2.10190113,
      "owner": {
        "id": null,
        "name": null
      },
      "facilities": [
        "DISABLED"
      ]
    },
    {
      "id": "7f37f54d-43cb-42a1-b818-e86ec8630546",
      "createdAt": "2024-07-01T13:01:55.000Z",
      "name": "Bel Royal Victoria Avenue St. Lawrence",
      "parish": "St. Lawrence",
      "latitude": 49.19683473,
      "longitude": -2.14570211,
      "owner": {
        "id": "6060f60d-17a1-49c8-aa4a-c268721a806a",
        "name": "Government of Jersey"
      },
      "facilities": [
        "BEACH_SHOWER",
        "DISABLED"
      ]
    },
    {
      "id": "8165dc92-2813-475a-9d4a-f9196be1c212",
      "createdAt": "2024-07-01T13:01:56.000Z",
      "name": "First Tower Park (PoSH) La Route de St. Aubin St. Helier",
      "parish": "St. Helier",
      "latitude": 49.19701502,
      "longitude": -2.13210497,
      "owner": {
        "id": null,
        "name": null
      },
      "facilities": []
    },
    {
      "id": "823f6040-df8a-44ec-a3f1-df57cd99c17f",
      "createdAt": "2024-07-01T13:01:56.000Z",
      "name": "Albert Pier St. Helier",
      "parish": "St. Helier",
      "latitude": 49.17931748,
      "longitude": -2.11426177,
      "owner": {
        "id": "62a13258-686c-456c-87f3-8a93ff735d35",
        "name": "Ports of Jersey"
      },
      "facilities": []
    },
    {
      "id": "89cb7409-ac7e-4336-aaa4-d04c8c8240bb",
      "createdAt": "2024-07-01T13:01:56.000Z",
      "name": "Patriotic Street MSCP Patriotic Street St. Helier",
      "parish": "St. Helier",
      "latitude": 49.18745489,
      "longitude": -2.11366851,
      "owner": {
        "id": "6060f60d-17a1-49c8-aa4a-c268721a806a",
        "name": "Government of Jersey"
      },
      "facilities": [
        "DISABLED"
      ]
    },
    {
      "id": "8d9aa8b8-d413-483c-9ddd-b0f9514f7b1e",
      "createdAt": "2024-07-01T13:01:56.000Z",
      "name": "5 La Bantchette (PoSH) Conway Street St. Helier",
      "parish": "St. Helier",
      "latitude": 49.18379399,
      "longitude": -2.10764831,
      "owner": {
        "id": null,
        "name": null
      },
      "facilities": [
        "DISABLED"
      ]
    },
    {
      "id": "9901e662-a59e-4113-b6d3-d5139c38bc62",
      "createdAt": "2024-07-01T13:01:56.000Z",
      "name": "Victoria Park (PoSH) Peirson Road St. Helier",
      "parish": "St. Helier",
      "latitude": 49.18777912,
      "longitude": -2.11676865,
      "owner": {
        "id": null,
        "name": null
      },
      "facilities": []
    },
    {
      "id": "9b3ee8c6-e226-47e8-b889-8473c13dfec0",
      "createdAt": "2024-07-01T13:01:56.000Z",
      "name": "La Collette (PoSH) Mount Bingham St. Helier",
      "parish": "St. Helier",
      "latitude": 49.17636011,
      "longitude": -2.10597232,
      "owner": {
        "id": null,
        "name": null
      },
      "facilities": [
        "DISABLED"
      ]
    },
    {
      "id": "9b99f75a-d3af-4e09-bce3-d01802b7e451",
      "createdAt": "2024-07-01T13:01:56.000Z",
      "name": "La Mare Slipway La Grande Route de la Cote St. Clement",
      "parish": "St. Clement",
      "latitude": 49.1673819,
      "longitude": -2.08304482,
      "owner": {
        "id": "6060f60d-17a1-49c8-aa4a-c268721a806a",
        "name": "Government of Jersey"
      },
      "facilities": [
        "DISABLED"
      ]
    },
    {
      "id": "9c4b074a-e446-4ed4-8563-480ccb0d7bd3",
      "createdAt": "2024-07-01T13:01:56.000Z",
      "name": "Le Hocq La Grande Route de la Cote St. Clement",
      "parish": "St. Clement",
      "latitude": 49.16740904,
      "longitude": -2.06178906,
      "owner": {
        "id": null,
        "name": null
      },
      "facilities": [
        "DISABLED",
        "BABY_CHANGING"
      ]
    },
    {
      "id": "a33b7a2f-8430-4f51-b07e-75c55ceb63dc",
      "createdAt": "2024-07-01T13:01:56.000Z",
      "name": "Liberation Station Esplanade St. Helier",
      "parish": "St. Helier",
      "latitude": 49.18318296,
      "longitude": -2.10944555,
      "owner": {
        "id": "6060f60d-17a1-49c8-aa4a-c268721a806a",
        "name": "Government of Jersey"
      },
      "facilities": [
        "DISABLED",
        "BABY_CHANGING"
      ]
    },
    {
      "id": "a3444a7a-9934-4deb-aa09-2c276c25e987",
      "createdAt": "2024-07-01T13:01:56.000Z",
      "name": "La Haule La Route de la Haule St. Brelade",
      "parish": "St. Brelade",
      "latitude": 49.19379683,
      "longitude": -2.16419023,
      "owner": {
        "id": "6060f60d-17a1-49c8-aa4a-c268721a806a",
        "name": "Government of Jersey"
      },
      "facilities": [
        "BEACH_SHOWER",
        "DISABLED"
      ]
    },
    {
      "id": "a5ff273d-4ffd-4c6f-9164-147c77e67d4a",
      "createdAt": "2024-07-01T13:01:55.000Z",
      "name": "Cotil du Grouin Le Mont Sohier St. Brelade",
      "parish": "St. Brelade",
      "latitude": 49.18306482,
      "longitude": -2.18993586,
      "owner": {
        "id": "6060f60d-17a1-49c8-aa4a-c268721a806a",
        "name": "Government of Jersey"
      },
      "facilities": [
        "BABY_CHANGING"
      ]
    },
    {
      "id": "a6de2246-2956-4299-b347-77332577ca23",
      "createdAt": "2024-07-01T13:01:56.000Z",
      "name": "Anne Port La Route de la Cote Gorey Coast Road, St. Martin",
      "parish": "St. Martin",
      "latitude": 49.20593417,
      "longitude": -2.02268987,
      "owner": {
        "id": "6060f60d-17a1-49c8-aa4a-c268721a806a",
        "name": "Government of Jersey"
      },
      "facilities": [
        "BEACH_SHOWER"
      ]
    },
    {
      "id": "abc03b7e-0b02-4f9b-8573-1a80502466ad",
      "createdAt": "2024-07-01T13:01:56.000Z",
      "name": "St. Catherine's Breakwater La Route de St. Catherine St. Martin",
      "parish": "St. Martin",
      "latitude": 49.22235,
      "longitude": -2.01097042,
      "owner": {
        "id": "62a13258-686c-456c-87f3-8a93ff735d35",
        "name": "Ports of Jersey"
      },
      "facilities": []
    },
    {
      "id": "b6f08d93-fba1-44cf-8a8e-9775402e269c",
      "createdAt": "2024-07-01T13:01:56.000Z",
      "name": "Victoria Pier Victoria Pier St. Helier",
      "parish": "St. Helier",
      "latitude": 49.17539708,
      "longitude": -2.11426341,
      "owner": {
        "id": "62a13258-686c-456c-87f3-8a93ff735d35",
        "name": "Ports of Jersey"
      },
      "facilities": [
        "GENDER_NEUTRAL"
      ]
    },
    {
      "id": "c1110c44-7b5c-4c93-ab94-8e7ea0b658db",
      "createdAt": "2024-07-01T13:01:56.000Z",
      "name": "Central Market Beresford Street St. Helier",
      "parish": "St. Helier",
      "latitude": 49.18517778,
      "longitude": -2.10397128,
      "owner": {
        "id": "6060f60d-17a1-49c8-aa4a-c268721a806a",
        "name": "Government of Jersey"
      },
      "facilities": [
        "DISABLED",
        "BABY_CHANGING"
      ]
    },
    {
      "id": "c8aefafe-cf70-4da6-a6be-0eb02e376aee",
      "createdAt": "2024-07-01T13:01:56.000Z",
      "name": "Pier Road MSCP Pier Road St. Helier",
      "parish": "St. Helier",
      "latitude": 49.18070076,
      "longitude": -2.10733454,
      "owner": {
        "id": "6060f60d-17a1-49c8-aa4a-c268721a806a",
        "name": "Government of Jersey"
      },
      "facilities": []
    },
    {
      "id": "cb94254c-293d-42ea-b4d0-2951c17a784d",
      "createdAt": "2024-07-01T13:01:55.000Z",
      "name": "Snow Hill Snow Hill St. Helier",
      "parish": "St. Helier",
      "latitude": 49.1834161,
      "longitude": -2.10322207,
      "owner": {
        "id": "6060f60d-17a1-49c8-aa4a-c268721a806a",
        "name": "Government of Jersey"
      },
      "facilities": [
        "DISABLED"
      ]
    },
    {
      "id": "cd3d2d26-794f-4618-9279-cfa4133d6b30",
      "createdAt": "2024-07-01T13:01:55.000Z",
      "name": "Le Dicq La Greve d'Azette St. Saviour",
      "parish": "St. Saviour",
      "latitude": 49.1769573,
      "longitude": -2.09714629,
      "owner": {
        "id": "6060f60d-17a1-49c8-aa4a-c268721a806a",
        "name": "Government of Jersey"
      },
      "facilities": []
    },
    {
      "id": "d68662f9-4162-41df-9eee-245834a1f233",
      "createdAt": "2024-07-01T13:01:56.000Z",
      "name": "First Tower Victoria Avenue St. Helier",
      "parish": "St. Helier",
      "latitude": 49.19416454,
      "longitude": -2.12923768,
      "owner": {
        "id": "6060f60d-17a1-49c8-aa4a-c268721a806a",
        "name": "Government of Jersey"
      },
      "facilities": [
        "DISABLED"
      ]
    },
    {
      "id": "d881776e-bbb4-4593-80d2-2671440fca6a",
      "createdAt": "2024-07-01T13:01:55.000Z",
      "name": "Ouaisne Le Mont du Ouaisne St. Brelade",
      "parish": "St. Brelade",
      "latitude": 49.17669963,
      "longitude": -2.18378447,
      "owner": {
        "id": null,
        "name": null
      },
      "facilities": [
        "DISABLED",
        "BABY_CHANGING"
      ]
    },
    {
      "id": "dcd14008-e760-480c-91e7-7a3f0d894372",
      "createdAt": "2024-07-01T13:01:56.000Z",
      "name": "Gorey Pier Gorey Pier St. Martin",
      "parish": "St. Martin",
      "latitude": 49.1972833,
      "longitude": -2.02181761,
      "owner": {
        "id": "62a13258-686c-456c-87f3-8a93ff735d35",
        "name": "Ports of Jersey"
      },
      "facilities": []
    },
    {
      "id": "e032e200-57f3-4bdf-be54-be6996daa17d",
      "createdAt": "2024-07-01T13:01:56.000Z",
      "name": "Rozel Pier La Brecque du Nord Trinity",
      "parish": "Trinity",
      "latitude": 49.23780303,
      "longitude": -2.04453508,
      "owner": {
        "id": "62a13258-686c-456c-87f3-8a93ff735d35",
        "name": "Ports of Jersey"
      },
      "facilities": [
        "DISABLED",
        "BABY_CHANGING"
      ]
    },
    {
      "id": "e901b70d-a550-4edb-90d2-5a4f0d5acc55",
      "createdAt": "2024-07-01T13:01:56.000Z",
      "name": "Accessible Toilet Le Braye Slipway La Grande Route des Mielles St. Brelade",
      "parish": "St. Brelade",
      "latitude": 49.1988421,
      "longitude": -2.22394068,
      "owner": {
        "id": null,
        "name": null
      },
      "facilities": [
        "GENDER_NEUTRAL",
        "DISABLED",
        "BABY_CHANGING"
      ]
    },
    {
      "id": "f256173e-7267-4364-83bc-8c4e6e5a0367",
      "createdAt": "2024-07-01T13:01:56.000Z",
      "name": "West Park Promenade Esplanade St. Helier",
      "parish": "St. Helier",
      "latitude": 49.18713173,
      "longitude": -2.11685121,
      "owner": {
        "id": "6060f60d-17a1-49c8-aa4a-c268721a806a",
        "name": "Government of Jersey"
      },
      "facilities": [
        "DISABLED"
      ]
    },
    {
      "id": "f4fb8562-366f-41c8-b505-2489e2c2f334",
      "createdAt": "2024-07-01T13:01:55.000Z",
      "name": "Green Island La Rue de Samares St. Clement",
      "parish": "St. Clement",
      "latitude": 49.16357632,
      "longitude": -2.07336716,
      "owner": {
        "id": null,
        "name": null
      },
      "facilities": []
    },
    {
      "id": "f5f2adb9-0300-4553-bf82-48dcb0db4859",
      "createdAt": "2024-07-01T13:01:56.000Z",
      "name": "Red Houses La Route des Quennevais St. Brelade",
      "parish": "St. Brelade",
      "latitude": 49.19099016,
      "longitude": -2.20024761,
      "owner": {
        "id": "6060f60d-17a1-49c8-aa4a-c268721a806a",
        "name": "Government of Jersey"
      },
      "facilities": [
        "DISABLED"
      ]
    },
    {
      "id": "f6758dc1-c58d-4d90-9423-e4efcb7e22ce",
      "createdAt": "2024-07-01T13:01:55.000Z",
      "name": "Greve de Lecq La Greve de Lecq St. Ouen",
      "parish": "St. Ouen",
      "latitude": 49.24691776,
      "longitude": -2.20136509,
      "owner": {
        "id": "6060f60d-17a1-49c8-aa4a-c268721a806a",
        "name": "Government of Jersey"
      },
      "facilities": [
        "BEACH_SHOWER",
        "DISABLED",
        "BABY_CHANGING"
      ]
    },
    {
      "id": "f727428a-b63f-4387-99d4-7e67eac0f944",
      "createdAt": "2024-07-01T13:01:56.000Z",
      "name": "Millard's Corner La Greve d'Azette St. Clement",
      "parish": "St. Clement",
      "latitude": 49.17335334,
      "longitude": -2.08947872,
      "owner": {
        "id": "6060f60d-17a1-49c8-aa4a-c268721a806a",
        "name": "Government of Jersey"
      },
      "facilities": [
        "DISABLED"
      ]
    },
    {
      "id": "febf356b-c2d2-4c98-a5bb-3ca25a237a02",
      "createdAt": "2024-07-01T13:01:56.000Z",
      "name": "St. Catherine's La Route de St. Catherine St. Martin",
      "parish": "St. Martin",
      "latitude": 49.22469746,
      "longitude": -2.02028608,
      "owner": {
        "id": "62a13258-686c-456c-87f3-8a93ff735d35",
        "name": "Ports of Jersey"
      },
      "facilities": [
        "DISABLED"
      ]
    }
  ]
}